City_ID,City,Lat,Lng,Max Temp,Humidity,Cloudiness,Wind Speed,Country,Date
0,port elizabeth,-33.918,25.5701,21.72,95,0,1.03,ZA,1707079878
1,adamstown,-25.066,-130.1015,24.99,79,98,4.5,PN,1707079878
2,sabha,27.0377,14.4283,12.95,44,75,3.49,LY,1707079878
3,melekeok village,7.4957,134.6367,27.31,83,75,3.6,PW,1707079878
4,margaret river,-33.95,115.0667,13.05,78,59,2.93,AU,1707079879
5,port lincoln,-34.7333,135.8667,17.25,62,99,7.46,AU,1707079879
6,lompoc,34.6391,-120.4579,13.4,92,100,13.38,US,1707079879
7,port-aux-francais,-49.35,70.2167,5.14,72,10,8.73,TF,1707079879
8,rzhaksa,52.1338,42.0264,-0.59,93,100,6.34,RU,1707079879
9,yellowknife,62.456,-114.3525,-19.84,81,20,2.57,CA,1707079879
10,nerchinsk,51.9833,116.5833,-30.09,100,100,0.16,RU,1707079879
11,keflavik,64.0049,-22.5624,-4.76,74,75,6.69,IS,1707079881
12,east london,-33.0153,27.9116,24.52,79,100,5.9,ZA,1707079882
13,bilibino,68.0546,166.4372,-31.49,82,14,2.32,RU,1707079882
14,waitangi,-43.9535,-176.5597,18.79,82,35,1.34,NZ,1707079882
15,ahtari,62.554,24.0619,-6.04,97,96,2.87,FI,1707079882
16,olonkinbyen,70.9221,-8.7187,-5.7,76,100,11.11,SJ,1707079882
17,grytviken,-54.2811,-36.5092,3.22,70,14,5.63,GS,1707079884
18,edinburgh of the seven seas,-37.0676,-12.3116,16.03,76,70,8.4,SH,1707079886
19,college,64.8569,-147.8028,-19.0,71,75,1.54,US,1707079724
20,yuzhne,46.6221,31.1013,6.3,77,100,7.38,UA,1707079887
21,rawai,7.7797,98.3253,24.06,78,90,5.28,TH,1707079887
22,ust'-charyshskaya pristan',52.3934,83.6635,-2.71,77,100,7.19,RU,1707079887
23,tolanaro,-25.0319,46.9987,24.04,94,75,8.23,MG,1707079887
24,queenstown,-31.8976,26.8753,17.3,88,94,1.66,ZA,1707079887
25,arraial do cabo,-22.9661,-42.0278,27.92,78,75,6.17,BR,1707079887
26,barcelos,41.5388,-8.6151,14.95,85,96,1.31,PT,1707079887
27,iqaluit,63.7506,-68.5145,-20.15,77,100,3.6,CA,1707079697
28,port blair,11.6667,92.75,24.6,72,49,3.82,IN,1707079889
29,west island,-12.1568,96.8225,27.99,78,100,4.12,CC,1707079890
30,anadyr,64.75,177.4833,-14.72,61,100,6.0,RU,1707079890
31,tejen,37.3834,60.5054,5.94,52,32,1.2,TM,1707079890
32,novodvinsk,64.4165,40.8122,-8.14,93,100,4.15,RU,1707079891
33,souillac,-20.5167,57.5167,24.21,69,20,1.54,MU,1707079891
34,blackmans bay,-43.0167,147.3167,13.74,96,29,1.79,AU,1707079891
35,sandpoint,48.2766,-116.5533,4.14,82,100,2.57,US,1707079892
36,bolobo,-2.1667,16.2333,26.29,62,59,1.42,CD,1707079892
37,haenam,34.5711,126.5989,5.65,87,100,7.78,KR,1707079892
38,avarua,-21.2078,-159.775,30.03,70,20,2.57,CK,1707079893
39,vrangel',42.7297,133.0839,-10.83,68,96,4.94,RU,1707079893
40,acarau,-2.8856,-40.12,28.13,76,62,8.55,BR,1707079893
41,port mathurin,-19.6833,63.4167,25.91,72,86,6.44,MU,1707079703
42,invercargill,-46.4,168.35,14.45,98,79,2.68,NZ,1707079813
43,st. john's,47.5649,-52.7093,1.66,97,100,10.8,CA,1707079795
44,san patricio,28.017,-97.5169,25.05,35,0,10.32,US,1707079894
45,greymouth,-42.4667,171.2,17.44,69,95,1.11,NZ,1707079762
46,port alfred,-33.5906,26.891,23.34,84,98,3.78,ZA,1707079894
47,punta arenas,-53.15,-70.9167,22.06,53,75,6.17,CL,1707079739
48,nadi,-17.8,177.4167,27.0,78,40,3.09,FJ,1707079895
49,bredasdorp,-34.5322,20.0403,22.24,84,46,1.88,ZA,1707079713
50,longyearbyen,78.2186,15.6401,-1.09,80,75,13.38,SJ,1707079895
51,vila franca do campo,37.7167,-25.4333,18.27,99,12,3.31,PT,1707079895
52,al jawf,29.5,38.75,10.67,40,2,3.81,SA,1707079896
53,ribeira grande,38.5167,-28.7,17.22,94,75,7.6,PT,1707079896
54,balabac,7.9868,117.0645,27.1,79,66,6.22,PH,1707079738
55,povoa de lanhoso,41.5787,-8.282,13.76,80,92,1.52,PT,1707079896
56,oamaru,-45.0784,170.9801,21.17,52,48,3.7,NZ,1707079896
57,atafu village,-8.5421,-172.5159,29.2,76,97,9.4,TK,1707079730
58,maymana,35.9214,64.7836,2.9,60,11,1.44,AF,1707079897
59,babenhausen,49.9667,8.9578,11.34,80,100,7.57,DE,1707079897
60,bethel,41.3712,-73.414,7.17,47,0,5.66,US,1707079712
61,wailua homesteads,22.0669,-159.378,22.64,67,75,8.75,US,1707079897
62,narvik,68.4384,17.4272,-0.33,90,100,2.21,NO,1707079897
63,caimancito,-23.7407,-64.5937,34.01,20,96,1.76,AR,1707079897
64,rio grande,-32.035,-52.0986,30.06,85,49,6.88,BR,1707079897
65,puerto ayora,-0.7393,-90.3518,27.98,87,69,3.58,EC,1707079897
66,fortuna,40.5982,-124.1573,9.51,93,40,0.0,US,1707079898
67,albany,42.6001,-73.9662,4.89,52,1,1.34,US,1707079854
68,tondano,1.3038,124.9112,18.05,92,94,0.91,ID,1707079898
69,alice springs,-23.7,133.8833,28.75,33,37,4.12,AU,1707079898
70,roma,43.2128,-75.4557,5.4,59,20,1.54,US,1707079898
71,bikenibeu village,1.3673,173.1241,28.98,84,75,3.09,KI,1707079898
72,saint-philippe,-21.3585,55.7679,21.77,73,43,3.21,RE,1707079899
73,ambovombe,-25.1667,46.0833,23.22,92,100,2.96,MG,1707079899
74,murzuq,25.9155,13.9184,11.71,44,0,4.16,LY,1707079899
75,diapaga,12.0708,1.7889,25.32,13,92,3.78,BF,1707079899
76,ushuaia,-54.8,-68.3,15.81,63,40,2.57,AR,1707079899
77,afaahiti,-17.75,-149.2833,28.93,85,99,6.84,PF,1707079899
78,tiksi,71.6872,128.8694,-33.46,100,95,0.45,RU,1707079899
79,whitehorse,60.7161,-135.0538,-25.57,64,75,2.06,CA,1707079899
80,tadine,-21.55,167.8833,26.83,87,100,7.98,NC,1707079900
81,stanley,54.868,-1.6985,11.82,80,75,12.86,GB,1707079900
82,puerto natales,-51.7236,-72.4875,23.25,35,75,14.4,CL,1707079900
83,lata,40.1629,-8.3327,12.18,81,100,0.73,PT,1707079900
84,sisimiut,66.9395,-53.6735,-20.83,95,97,3.26,GL,1707079900
85,ixtapa,20.7,-105.2,25.68,65,0,2.68,MX,1707079900
86,polyarnyy,69.1989,33.4478,-11.67,85,100,7.03,RU,1707079900
87,hawaiian paradise park,19.5933,-154.9731,22.8,81,100,3.6,US,1707079722
88,hithadhoo,-0.6,73.0833,28.25,78,67,5.82,MV,1707079718
89,inarajan village,13.2736,144.7484,26.54,83,94,9.63,GU,1707079901
90,awjilah,29.1081,21.2869,14.77,52,73,5.37,LY,1707079901
91,ialibu,-6.2821,143.9935,13.49,97,96,1.28,PG,1707079901
92,mutum biyu,8.6333,10.7667,26.5,17,74,2.8,NG,1707079901
93,prince rupert,54.3161,-130.3201,3.83,81,0,5.66,CA,1707079901
94,zouerate,22.7187,-12.4521,19.84,10,100,4.45,MR,1707079901
95,sinabang,2.4803,96.3801,26.69,81,74,1.09,ID,1707079901
96,iskateley,67.6803,53.1512,-19.43,91,90,3.13,RU,1707079902
97,talnakh,69.4865,88.3972,-18.22,97,100,3.09,RU,1707079902
98,port douglas,-16.4833,145.4667,27.26,83,61,1.34,AU,1707079902
99,fale old settlement,-9.3852,-171.2468,29.37,76,100,11.15,TK,1707079902
100,kruisfontein,-34.0033,24.7314,20.49,74,34,1.79,ZA,1707079902
101,boysun,38.2061,67.1986,-1.25,57,76,2.08,UZ,1707079902
102,nova vicosa,-17.8919,-39.3719,26.57,77,27,3.47,BR,1707079902
103,poltava,49.5937,34.5407,2.17,88,97,5.35,UA,1707079886
104,rampachodavaram,17.45,81.7667,19.59,95,1,0.89,IN,1707079903
105,vadso,70.0744,29.7487,-4.91,74,75,8.75,NO,1707079903
106,shanghai,31.2222,121.4581,2.18,90,75,6.0,CN,1707079877
107,acapulco de juarez,16.8634,-99.8901,28.88,50,2,7.24,MX,1707079903
108,urucara,-2.5364,-57.76,30.35,65,96,0.64,BR,1707079903
109,ust-nera,64.5667,143.2,-30.8,96,97,1.85,RU,1707079903
110,vila do maio,15.1333,-23.2167,24.44,69,0,4.84,CV,1707079903
111,brokopondo,4.75,-55.1667,32.16,53,58,0.49,SR,1707079903
112,monmouth,40.3001,-74.1663,10.1,46,0,4.12,US,1707079902
113,villa huidobro,-34.8383,-64.5869,30.89,28,100,5.82,AR,1707079725
114,bardai,11.65,7.2333,19.84,16,74,5.27,NG,1707079904
115,santa ana,33.7456,-117.8678,18.05,63,75,6.69,US,1707079904
116,papatowai,-46.5619,169.4708,14.92,95,99,2.97,NZ,1707079904
117,reggane,26.7158,0.1714,16.54,28,31,7.14,DZ,1707079904
118,cadale,2.7603,46.3222,25.7,79,100,9.54,SO,1707079904
119,al muwayh,22.4333,41.7583,15.7,30,75,3.02,SA,1707079905
120,fort mcmurray,56.7268,-111.381,-9.23,79,0,2.06,CA,1707079905
121,susuman,62.7833,148.1667,-28.9,99,100,1.34,RU,1707079905
122,guerrero negro,27.9769,-114.0611,19.46,46,0,3.36,MX,1707079905
123,thompson,55.7435,-97.8558,-3.91,93,100,4.12,CA,1707079905
124,la sarre,48.8002,-79.1996,0.05,96,100,1.13,CA,1707079905
125,new norfolk,-42.7826,147.0587,14.4,85,35,1.12,AU,1707079905
126,qaqortoq,60.7167,-46.0333,-21.78,68,0,2.73,GL,1707079905
127,remire-montjoly,4.9167,-52.2667,30.02,74,0,6.69,GF,1707079905
128,holualoa,19.6228,-155.9522,23.91,68,40,3.09,US,1707079906
129,touros,-5.1989,-35.4608,27.66,71,2,6.73,BR,1707079795
130,tazovsky,67.4667,78.7,-14.3,96,100,3.27,RU,1707079906
131,kununurra,-15.7667,128.7333,26.99,94,68,0.51,AU,1707079906
132,arti,56.4234,58.5328,-12.25,96,100,2.85,RU,1707079737
133,kingston,17.997,-76.7936,29.56,71,75,4.12,JM,1707079763
134,sorong,-0.8833,131.25,26.79,84,100,3.67,ID,1707079744
135,taroa,8.7058,171.2275,26.68,79,100,7.83,MH,1707079906
136,codrington,-38.2667,141.9667,16.15,68,91,5.98,AU,1707079907
137,jamestown,42.097,-79.2353,7.8,33,0,5.14,US,1707079681
138,lorengau,-2.0226,147.2712,28.39,79,98,1.85,PG,1707079907
139,lazaro cardenas,17.9583,-102.2,27.28,56,0,5.85,MX,1707079907
140,sitka,57.0531,-135.33,2.94,100,100,3.09,US,1707079728
141,constantia,44.1833,28.65,5.39,81,100,5.35,RO,1707079907
142,pacasmayo,-7.4006,-79.5714,26.92,72,97,4.5,PE,1707079907
143,newman,37.3138,-121.0208,14.6,90,100,6.26,US,1707079907
144,pionerskiy,54.9508,20.2275,6.19,83,99,14.5,RU,1707079907
145,labrador city,52.9463,-66.9114,-10.05,52,100,2.06,CA,1707079908
146,kijang,35.2442,129.2139,6.85,88,100,12.15,KR,1707079908
147,ilulissat,69.2167,-51.1,-20.99,54,7,3.09,GL,1707079705
148,chonchi,-42.6128,-73.8092,25.56,34,1,1.36,CL,1707079908
149,mount gambier,-37.8333,140.7667,14.76,69,60,3.24,AU,1707079908
150,bodaybo,57.8506,114.1933,-25.82,96,100,0.62,RU,1707079908
151,kardla,58.9978,22.7492,0.59,77,4,6.01,EE,1707079908
152,senillosa,-39.0,-68.4167,31.88,21,0,11.76,AR,1707079909
153,panshi,42.9422,126.0561,-20.25,96,100,1.97,CN,1707079909
154,ust-tsilma,65.441,52.1498,-19.87,93,44,2.61,RU,1707079909
155,margate,51.3813,1.3862,11.04,81,100,6.26,GB,1707079909
156,copiapo,-27.3667,-70.3333,23.83,47,98,3.44,CL,1707079656
157,mae hong son,19.3003,97.9685,14.13,57,0,0.82,TH,1707079909
158,mossel bay,-34.1831,22.146,19.96,92,2,1.63,ZA,1707079909
159,kolonia town,6.964,158.206,27.87,83,100,11.25,FM,1707079909
160,san martin,-33.081,-68.4681,32.3,29,91,3.52,AR,1707079910
161,mwene-ditu,-7.0,23.45,20.01,95,100,0.58,CD,1707079910
162,saipan,15.1355,145.701,26.39,69,40,8.23,MP,1707079707
163,georgetown,5.4112,100.3354,27.75,83,20,1.54,MY,1707079910
164,sao jose da coroa grande,-8.8978,-35.1478,27.4,76,38,3.39,BR,1707079910
165,hobyo,5.3505,48.5268,25.63,78,42,7.86,SO,1707079910
166,port saint john's,-31.6229,29.5448,23.94,91,100,3.52,ZA,1707079910
167,cidreira,-30.1811,-50.2056,24.07,88,67,1.64,BR,1707079910
168,katsuren-haebaru,26.3369,127.8719,24.43,88,100,16.46,JP,1707079727
169,udachny,66.4167,112.4,-31.66,96,67,2.34,RU,1707079911
170,aasiaat,68.7098,-52.8699,-31.72,88,12,2.06,GL,1707079911
171,shingu,33.7333,135.9833,8.67,77,100,3.8,JP,1707079911
172,nantucket,41.2835,-70.0995,4.08,48,0,8.75,US,1707079778
173,piton saint-leu,-21.2196,55.3151,22.04,78,0,2.06,RE,1707079911
174,tughyl,47.7252,84.2063,-15.25,95,100,0.49,KZ,1707079911
175,kassala,15.451,36.4,22.54,48,2,3.69,SD,1707079911
176,tonghae,37.5439,129.1069,4.53,93,100,9.13,KR,1707079911
177,revda,56.801,59.9303,-18.35,100,92,1.47,RU,1707079776
178,sambava,-14.2667,50.1667,25.26,89,90,3.6,MG,1707079912
179,carnarvon,-24.8667,113.6333,22.8,57,1,10.24,AU,1707079726
180,tralee,52.2704,-9.7026,10.26,89,98,5.36,IE,1707079912
181,laguna,38.421,-121.4238,15.1,75,100,12.35,US,1707079912
182,villa hidalgo,21.6667,-102.6,19.41,8,0,3.7,MX,1707079912
183,banepa,27.6298,85.5214,7.18,93,75,1.03,NP,1707079912
184,al khums,32.6486,14.2619,14.91,76,5,5.82,LY,1707079912
185,beau vallon,-20.4189,57.6953,24.13,69,20,1.54,MU,1707079912
186,hovd,48.0056,91.6419,-19.74,92,100,0.47,MN,1707079913
187,guapore,-28.8456,-51.8903,21.94,88,94,1.56,BR,1707079913
188,mutuali,-14.8706,37.0044,21.15,96,98,1.39,MZ,1707079913
189,al wakrah,24.85,51.3333,15.05,57,65,3.94,QA,1707079913
190,urengoy,65.9667,78.3667,-18.12,98,100,2.53,RU,1707079913
191,bria,6.5423,21.9863,25.24,25,58,2.37,CF,1707079913
192,kone,-21.0595,164.8658,27.95,83,99,2.81,NC,1707079913
193,nova sintra,14.8667,-24.7167,21.27,71,0,4.04,CV,1707079913
194,pingliang,35.5392,106.6861,-6.07,95,100,0.42,CN,1707079914
195,crane,31.3974,-102.3501,16.73,14,0,12.33,US,1707079773
196,agat village,13.3886,144.6585,26.52,78,0,5.66,GU,1707079914
197,kroya,-7.6331,109.2461,24.61,91,100,0.92,ID,1707079914
198,lihue,21.9789,-159.3672,22.98,62,75,8.75,US,1707079914
199,zuni pueblo,35.0725,-108.8506,7.35,38,16,4.32,US,1707079914
200,talcahuano,-36.7167,-73.1167,16.82,77,20,8.23,CL,1707079914
201,rusape,-18.5278,32.1284,16.85,74,48,1.75,ZW,1707079914
202,razole,16.4833,81.8333,20.47,94,0,1.28,IN,1707079914
203,ola,59.5833,151.2833,-23.2,85,22,4.53,RU,1707079915
204,tamiahua,21.2667,-97.45,24.96,69,0,5.82,MX,1707079915
205,bechar,31.6167,-2.2167,10.78,43,18,2.08,DZ,1707079915
206,xinmin,41.9908,122.8253,-10.47,62,100,6.7,CN,1707079915
207,yatou,37.15,122.3833,-0.5,97,100,7.85,CN,1707079915
208,conduaga,8.862,117.4893,25.63,78,55,0.86,PH,1707079915
209,bestobe,52.4994,73.0975,-5.19,86,100,8.07,KZ,1707079915
210,el galpon,-25.3807,-64.6526,33.53,35,63,2.52,AR,1707079915
211,aripuana,-9.1667,-60.6333,22.94,99,100,0.24,BR,1707079916
212,aleg,17.0481,-13.9209,26.33,8,100,4.36,MR,1707079916
213,ar rass,25.8694,43.4973,14.31,31,100,4.58,SA,1707079916
214,lebu,-37.6167,-73.65,17.74,70,0,5.21,CL,1707079699
215,dudinka,69.4058,86.1778,-17.99,96,99,4.7,RU,1707079916
216,katol,21.2667,78.5833,22.4,40,0,1.23,IN,1707079916
217,tetyushi,54.9382,48.8366,-1.98,94,93,6.75,RU,1707079916
218,chichiriviche,10.9333,-68.2772,27.35,78,84,3.86,VE,1707079917
219,san juan de abajo,20.8167,-105.1833,25.93,29,0,3.59,MX,1707079917
220,salalah,17.0151,54.0924,26.05,31,0,2.06,OM,1707079917
221,espumoso,-28.7247,-52.8497,22.55,89,33,7.28,BR,1707079917
222,haiku-pauwela,20.9219,-156.3051,22.92,74,40,6.26,US,1707079917
223,tromso,69.6496,18.957,-1.99,64,75,3.6,NO,1707079750
224,rongelap,11.1635,166.8941,26.31,73,100,7.93,MH,1707079917
225,isafjordur,66.0755,-23.124,-4.87,85,100,5.98,IS,1707079917
226,natal,-5.795,-35.2094,30.12,66,40,6.17,BR,1707079756
227,kapuskasing,49.4169,-82.4331,5.05,52,20,4.12,CA,1707079748
228,punganuru,13.3667,78.5833,16.88,91,45,1.45,IN,1707079918
229,west end,26.6833,-78.9667,20.99,74,100,8.8,BS,1707079918
230,payakumbuh,-0.2202,100.6308,21.15,97,92,1.09,ID,1707079918
231,sola,-13.8833,167.55,27.99,82,98,8.56,VU,1707079918
232,kembe,4.6228,21.8865,25.6,30,87,0.55,CF,1707079918
233,cockburn town,21.4612,-71.1419,25.98,65,75,7.72,TC,1707079740
234,tchintabaraden,15.8969,5.7985,18.25,12,1,5.74,NE,1707079918
235,viedma,-40.8135,-62.9967,29.16,17,83,8.16,AR,1707079919
236,lautoka,-17.6167,177.4667,26.92,78,40,3.09,FJ,1707079919
237,lydenburg,-25.0978,30.4597,16.18,92,53,0.69,ZA,1707079919
238,bahia de caraquez,-0.6,-80.4167,30.1,73,87,3.59,EC,1707079919
239,igarka,67.4667,86.5833,-14.99,96,100,4.22,RU,1707079919
240,madera,37.1666,-119.8343,14.56,81,100,7.04,US,1707079638
241,mount pearl,47.5166,-52.7813,1.19,97,100,10.8,CA,1707079919
242,punta del este,-34.9667,-54.95,22.06,66,40,8.23,UY,1707079919
243,khandyga,62.6667,135.6,-43.83,100,72,0.68,RU,1707079920
244,galesong,-5.3166,119.3661,24.01,91,100,2.6,ID,1707079920
245,mugia,43.1041,-9.2179,12.17,81,95,0.43,ES,1707079920
246,tabou,4.423,-7.3528,27.78,78,97,3.28,CI,1707079920
247,auki,-8.7676,160.7034,26.99,87,91,4.32,SB,1707079920
248,berezovyy,51.6667,135.7,-23.15,95,5,1.35,RU,1707079758
249,peniche,39.3558,-9.3811,14.69,84,100,2.06,PT,1707079925
250,chibougamau,49.9168,-74.3659,-5.21,74,0,1.03,CA,1707079795
251,plouzane,48.3833,-4.6167,9.18,84,100,4.12,FR,1707079925
252,vorgashor,67.5833,63.95,-16.45,92,100,0.43,RU,1707079705
253,tual,-5.6667,132.75,28.87,76,100,5.57,ID,1707079925
254,taro,-8.3862,115.28,24.0,95,100,0.81,ID,1707079925
255,jianshui,23.6363,102.8264,9.94,64,0,1.54,CN,1707079925
256,saldanha,-33.0117,17.9442,21.03,84,100,2.37,ZA,1707079926
257,pades,45.0167,22.85,8.21,75,75,3.56,RO,1707079926
258,devils lake,48.1128,-98.8651,1.06,93,100,0.0,US,1707079926
259,minas de marcona,-15.2119,-75.1103,21.91,73,58,4.81,PE,1707079926
260,nemuro,43.3236,145.575,-7.01,72,19,6.09,JP,1707079741
261,lago da pedra,-4.3333,-45.1667,27.5,82,59,0.92,BR,1707079926
262,paris,48.8534,2.3488,10.1,90,100,4.63,FR,1707079859
263,hermanus,-34.4187,19.2345,21.0,88,4,0.69,ZA,1707079736
264,harstad,68.799,16.5293,-0.34,95,100,5.81,NO,1707079926
265,walvis bay,-22.9575,14.5053,20.53,83,100,0.0,NA,1707079927
266,porto sant'elpidio,43.2583,13.7583,12.17,67,53,1.76,IT,1707079927
267,cill airne,52.05,-9.5167,10.51,87,99,4.34,IE,1707079927
268,namdrik,5.5994,168.1028,27.87,71,98,8.6,MH,1707079927
269,turkmenbasy,40.0222,52.9552,10.43,87,75,8.23,TM,1707079927
270,franca,-20.5386,-47.4008,18.27,92,100,1.31,BR,1707079927
271,badger,64.8,-147.5333,-19.05,69,100,1.54,US,1707079927
272,cabo san lucas,22.8909,-109.9124,26.61,53,0,5.14,MX,1707079505
273,mangrol,21.1167,70.1167,22.18,86,0,4.05,IN,1707079927
274,ad dabbah,18.05,30.95,16.34,20,26,6.25,SD,1707079928
275,villazon,-22.0866,-65.5942,16.97,38,80,8.72,BO,1707079928
276,bakanas,44.8081,76.2772,-3.63,91,100,2.34,KZ,1707079928
277,zaozersk,69.4005,32.4476,-15.09,93,92,3.1,RU,1707079928
278,petropavlovsk-kamchatsky,53.0452,158.6483,-13.64,81,20,3.13,RU,1707079708
279,enewetak,11.3474,162.3373,26.56,75,100,9.49,MH,1707079928
280,kodiak,57.79,-152.4072,0.73,86,20,3.09,US,1707079928
281,palpa,-14.5336,-75.1856,29.86,53,42,5.64,PE,1707079929
282,mar del plata,-38.0023,-57.5575,20.53,62,0,5.14,AR,1707079789
283,gadzhiyevo,69.2551,33.3362,-11.87,85,100,7.09,RU,1707079929
284,liwale,-9.7667,37.9333,22.03,99,100,0.83,TZ,1707079929
285,bairnsdale,-37.8333,147.6167,27.98,42,100,2.39,AU,1707079929
286,medicine hat,50.0501,-110.6683,-2.1,91,100,4.12,CA,1707079929
287,princeville,45.7668,-61.2985,0.3,98,100,8.23,CA,1707079929
288,grootfontein,-19.5667,18.1167,22.76,68,74,1.54,NA,1707079929
289,kintampo,8.0563,-1.7306,29.26,15,17,1.33,GH,1707079930
290,pisco,-13.7,-76.2167,28.03,61,0,7.72,PE,1707079930
291,kavaratti,10.5669,72.642,27.64,72,33,4.81,IN,1707079930
292,silver city,32.7701,-108.2803,10.93,44,0,9.26,US,1707079930
293,kenai,60.5544,-151.2583,-9.36,90,100,2.57,US,1707079930
294,zhoucun,36.8167,117.8167,-4.97,93,100,1.88,CN,1707079930
295,richards bay,-28.783,32.0377,23.02,89,79,2.41,ZA,1707079930
296,nabire,-3.3667,135.4833,24.82,93,90,1.33,ID,1707079931
297,calvinia,-31.4707,19.776,22.03,41,3,2.21,ZA,1707079931
298,charters towers,-20.1,146.2667,24.47,79,100,3.98,AU,1707079741
299,roxas,11.5853,122.7511,24.52,83,50,5.41,PH,1707079931
300,chulakkurgan,43.765,69.1814,-3.83,84,98,3.07,KZ,1707079931
301,tsrar sharif,33.8667,74.7667,-3.55,83,80,2.36,IN,1707079931
302,mehran,33.1222,46.1646,12.04,49,13,1.98,IR,1707079931
303,mujiayingzi,42.1167,118.7833,-9.92,58,100,0.59,CN,1707079931
304,ingeniero jacobacci,-41.3427,-69.5448,29.89,16,47,11.28,AR,1707079756
305,chimoio,-19.1164,33.4833,19.58,82,92,0.96,MZ,1707079932
306,dogondoutchi,13.6393,4.0287,22.1,15,32,5.14,NE,1707079932
307,gilgit,35.9221,74.3087,-2.01,82,82,1.32,PK,1707079932
308,sydney mines,46.2367,-60.2177,0.7,98,100,10.29,CA,1707079932
309,smidovich,48.6,133.8167,-31.63,100,64,0.51,RU,1707079932
310,makanya,-4.3667,37.8333,23.19,82,98,1.51,TZ,1707079932
311,ad dawadimi,24.5077,44.3924,12.64,29,88,7.67,SA,1707079932
312,belem do brejo do cruz,-6.1886,-37.5358,34.35,29,18,4.62,BR,1707079933
313,vernon,50.2581,-119.2691,3.12,89,100,2.06,CA,1707079933
314,ancud,-41.8697,-73.8203,17.61,65,20,4.07,CL,1707079933
315,huarmey,-10.0681,-78.1522,25.54,76,100,2.83,PE,1707079933
316,waingapu,-9.6567,120.2641,26.16,85,100,3.71,ID,1707079933
317,utrik,11.2278,169.8474,25.91,73,58,7.18,MH,1707079933
318,naze,28.3667,129.4833,18.51,89,100,11.21,JP,1707079933
319,brisas de zicatela,15.8369,-97.0419,29.15,52,12,7.61,MX,1707079933
320,keetmanshoop,-26.5833,18.1333,30.51,26,71,5.66,NA,1707079934
321,kill devil hills,36.0307,-75.676,8.32,71,0,5.14,US,1707079679
322,quellon,-43.1167,-73.6167,19.19,49,0,2.19,CL,1707079934
323,carutapera,-1.195,-46.02,27.53,77,18,3.88,BR,1707079750
324,prado,-17.3411,-39.2208,26.03,80,11,2.72,BR,1707079896
325,vilyuchinsk,52.9306,158.4028,-12.82,78,98,4.01,RU,1707079934
326,tarawa,1.419,172.984,29.05,84,75,3.09,KI,1707079934
327,dumai,1.6833,101.45,23.39,98,82,1.09,ID,1707079934
328,cambria,35.5641,-121.0808,14.87,98,100,7.6,US,1707079935
329,griffith,41.5284,-87.4237,9.51,71,0,4.63,US,1707079935
330,hamilton,39.1834,-84.5333,13.97,46,0,6.17,US,1707079887
331,sakaiminato,35.55,133.2333,5.99,87,75,8.23,JP,1707079935
332,grimstad,58.3405,8.5934,2.95,76,88,8.21,NO,1707079935
333,greenland,43.0362,-70.8328,5.12,46,0,2.57,US,1707079935
334,goure,13.9835,10.2704,18.75,15,10,5.11,NE,1707079935
335,broome,42.2506,-75.833,5.94,43,0,3.09,US,1707079752
336,nema,57.5067,50.5011,-7.86,94,100,6.48,RU,1707079936
337,hancheng,32.5186,112.3522,-4.27,92,99,0.88,CN,1707079936
338,vilyuysk,63.7553,121.6247,-37.22,100,43,0.89,RU,1707079936
339,inhambane,-23.865,35.3833,25.02,87,22,2.94,MZ,1707079936
340,an nuhud,12.7,28.4333,19.0,19,23,7.06,SD,1707079936
341,valdivia,-39.8142,-73.2459,28.05,32,0,3.66,CL,1707079936
342,vallenar,-28.5708,-70.7581,23.11,41,79,4.06,CL,1707079937
343,aguilas,37.4063,-1.5829,12.21,66,0,1.0,ES,1707079937
344,la ronge,55.1001,-105.2842,-7.86,62,100,2.06,CA,1707079937
345,sheksna,59.21,38.5107,-8.02,100,98,0.8,RU,1707079937
346,nacozari viejo,30.4,-109.65,14.96,24,0,1.2,MX,1707079937
347,coquimbo,-29.9533,-71.3436,23.85,60,75,5.66,CL,1707079656
348,upington,-28.4478,21.2561,30.21,30,38,5.14,ZA,1707079937
349,hilo,19.7297,-155.09,22.92,83,100,3.6,US,1707079938
350,weno,7.4515,151.8468,27.97,89,100,4.63,FM,1707079938
351,belyy yar,53.6039,91.3903,-17.06,92,100,0.0,RU,1707079938
352,alofi,-19.0595,-169.9187,26.94,89,100,5.66,NU,1707079938
353,olinda,-8.0089,-34.8553,28.85,74,40,3.6,BR,1707079938
354,suva,-18.1416,178.4415,26.71,78,40,1.03,FJ,1707079939
355,asadabad,34.7824,48.1185,-3.03,81,79,2.44,IR,1707079939
356,basco,20.4487,121.9702,25.37,90,56,5.69,PH,1707079939
357,tvoroyri,61.5556,-6.8111,3.26,55,100,6.55,FO,1707079939
358,xichang,27.8964,102.2634,3.94,73,3,0.55,CN,1707079940
359,mil'kovo,55.6078,37.7956,0.24,92,100,5.88,RU,1707079710
360,kendari,-3.945,122.4989,24.64,94,100,1.81,ID,1707079940
361,raahe,64.6833,24.4833,-4.95,97,100,3.32,FI,1707079940
362,puerto santander,8.3636,-72.4063,33.67,52,100,1.64,CO,1707079940
363,visby,57.6409,18.296,3.12,87,75,5.14,SE,1707079941
364,young,-32.6833,-57.6333,35.98,25,88,2.63,UY,1707079941
365,tamanrasset,22.785,5.5228,10.89,18,0,6.13,DZ,1707079941
366,mlangali,-9.7833,34.5167,15.81,94,100,1.63,TZ,1707079941
367,arkalyk,50.2486,66.9114,-3.57,94,100,7.7,KZ,1707079941
368,antalaha,-14.9003,50.2788,24.26,91,94,2.52,MG,1707079942
369,khanty-mansiysk,61.0042,69.0019,-18.83,78,40,3.13,RU,1707079942
370,myskhako,44.6714,37.7433,8.88,83,100,7.74,RU,1707079942
371,swift current,50.2834,-107.8014,0.45,100,100,4.63,CA,1707079816
372,villa de soto,-30.8552,-64.9995,30.78,26,39,8.85,AR,1707079942
373,san juan,-31.5375,-68.5364,35.33,25,100,3.28,AR,1707079943
374,ocala,29.1872,-82.1401,23.32,71,75,5.14,US,1707079372
375,yekaterinoslavka,50.3734,129.1139,-29.46,100,65,0.98,RU,1707079943
376,kavieng,-2.5744,150.7967,28.66,77,96,2.58,PG,1707079943
377,tuy hoa,13.0833,109.3,21.8,94,60,1.43,VN,1707079943
378,somerset east,-32.7217,25.588,20.68,63,52,3.52,ZA,1707079943
379,el nido,11.1858,119.3956,26.33,82,8,5.18,PH,1707079944
380,city of balikpapan,-1.242,116.8942,24.97,100,20,2.57,ID,1707079944
381,nar'yan-mar,67.6713,53.087,-19.38,91,87,3.13,RU,1707079944
382,korbach,51.2756,8.873,9.34,91,100,8.44,DE,1707079944
383,ungsang-nodongjagu,42.3578,130.4622,-7.51,49,100,2.6,KP,1707079944
384,qamdo,31.1667,97.2333,-4.87,37,100,1.97,CN,1707079944
385,edmundston,47.3737,-68.3251,-3.87,50,0,7.72,CA,1707079945
386,tan-tan,28.438,-11.1032,19.03,25,100,5.46,MA,1707079945
387,puerto armuelles,8.2833,-82.8667,30.99,68,70,2.24,PA,1707079945
388,aswan,24.0934,32.907,15.61,25,0,2.06,EG,1707079945
389,jilib,0.4883,42.7854,26.18,83,38,4.5,SO,1707079945
390,trincomalee,8.5711,81.2335,26.52,82,88,5.58,LK,1707079946
391,aykhal,66.0,111.5,-29.21,97,83,3.18,RU,1707079946
392,hanceville,34.0607,-86.7675,5.95,93,100,5.37,US,1707079946
393,petawawa,45.9001,-77.3328,-0.12,77,100,0.89,CA,1707079798
394,san luis,-33.295,-66.3356,32.55,33,74,5.44,AR,1707079896
395,hasaki,35.7333,140.8333,2.22,61,100,3.74,JP,1707079946
396,leava,-14.3,-178.1667,28.45,75,100,3.98,WF,1707079946
397,yuzhno-kurilsk,44.0306,145.8556,-4.24,71,86,9.72,RU,1707079946
398,shuangjiang,26.1547,109.7138,-0.08,95,100,2.06,CN,1707079947
399,selibaby,15.159,-12.1829,28.58,8,97,4.4,MR,1707079947
400,kerikeri,-35.2268,173.9474,18.84,79,1,1.33,NZ,1707079812
401,ta`u,-14.2336,-169.5144,27.25,90,100,13.98,AS,1707079947
402,kencong,-8.2833,113.3667,23.9,93,100,1.19,ID,1707079947
403,puerto deseado,-47.7503,-65.8938,27.96,32,93,12.14,AR,1707079947
404,ibshaway,29.358,30.6814,13.09,58,5,3.68,EG,1707079948
405,northport,33.229,-87.5772,7.29,78,100,4.63,US,1707079881
406,bel ombre,-4.6167,55.4167,27.91,78,20,1.54,SC,1707079948
407,ukiah,39.1502,-123.2078,10.08,82,100,5.36,US,1707079948
408,flying fish cove,-10.4217,105.6791,24.82,100,100,1.54,CX,1707079948
409,arno,60.1167,18.6333,-0.12,77,2,4.74,SE,1707079948
410,thomson,33.4707,-82.5046,10.79,53,100,5.14,US,1707079948
411,korla,41.7597,86.1469,-5.5,72,100,2.99,CN,1707079948
412,okhotsk,59.3833,143.3,-23.28,78,28,6.6,RU,1707079948
413,quang ngai,15.1167,108.8,21.61,95,29,1.41,VN,1707079768
414,cruzeiro do sul,-29.5128,-51.9853,20.61,94,100,1.72,BR,1707079949
415,saint-louis,16.3333,-15.0,26.75,8,84,4.48,SN,1707079949
416,san-pedro,4.7485,-6.6363,28.32,75,90,3.31,CI,1707079949
417,broken hill,-31.95,141.4333,22.99,76,100,10.7,AU,1707079949
418,luderitz,-26.6481,15.1594,19.12,85,5,3.85,NA,1707079949
419,srivardhan,18.0333,73.0167,23.8,62,0,2.04,IN,1707079949
420,ugoofaaru,5.6667,73.0,27.44,78,49,4.49,MV,1707079950
421,mandalgovi,45.7625,106.2708,-16.64,97,100,1.71,MN,1707079950
422,kayangel,8.0823,134.7173,27.66,79,86,8.22,PW,1707079950
423,ilomantsi,62.6716,30.9328,-6.82,98,99,1.82,FI,1707079950
424,saudarkrokur,65.7461,-19.6394,-12.33,86,88,2.29,IS,1707079950
425,binhe,32.6883,112.8275,-5.69,95,91,1.22,CN,1707079950
426,shenjiamen,29.9576,122.298,3.82,87,60,13.66,CN,1707079950
427,noumea,-22.2763,166.4572,28.33,99,100,5.17,NC,1707079951
428,cole harbour,44.6724,-63.4751,-2.24,93,100,6.26,CA,1707079951
429,glubokoye,50.1456,82.3114,-3.14,54,100,4.0,KZ,1707079951
430,tabuk,17.4189,121.4443,19.94,86,5,1.48,PH,1707079951
431,pandan,14.0453,124.1694,24.41,83,28,4.02,PH,1707079751
432,rundu,-17.9333,19.7667,19.83,90,99,2.72,NA,1707079951
433,gantang,26.92,119.6333,10.99,94,0,1.76,CN,1707079951
434,rocky mountain house,52.3668,-114.9188,-3.94,68,100,1.03,CA,1707079951
435,charlottetown,46.2352,-63.1267,-1.84,95,100,12.35,CA,1707079828
436,middelkerke,51.1558,2.8418,11.7,81,100,10.29,BE,1707079952
437,nalut,30.3333,10.85,10.39,56,1,4.21,LY,1707079952
438,mongo,12.1844,18.693,24.97,18,10,3.92,TD,1707079952
439,cartagena,10.3997,-75.5144,30.79,66,20,5.14,CO,1707079688
440,calama,-22.4667,-68.9333,25.27,29,0,13.89,CL,1707079700
441,cestos city,5.46,-9.5828,27.59,85,81,3.99,LR,1707079952
442,roshal',55.6685,39.8749,-2.69,97,98,2.62,RU,1707079952
443,angaur state,6.906,134.13,27.55,83,86,8.01,PW,1707079953
444,karratha,-20.7377,116.8463,30.14,41,54,5.18,AU,1707079953
445,les anglais,18.3054,-74.2197,26.7,71,19,2.62,HT,1707079953
446,vrontados,38.4089,26.1328,8.92,76,0,1.54,GR,1707079953
447,sur,22.5667,59.5289,21.01,62,24,1.33,OM,1707079953
448,colonia,50.9333,6.95,11.57,87,75,8.23,DE,1707079802
449,san juan de los morros,9.9115,-67.3538,30.81,47,83,0.29,VE,1707079953
450,nuuk,64.1835,-51.7216,-10.66,67,75,5.66,GL,1707079860
451,isna,25.2934,32.554,13.01,28,0,4.02,EG,1707079954
452,uturoa,-16.7333,-151.4333,27.43,80,100,6.89,PF,1707079954
453,valley city,46.9233,-98.0032,0.29,100,100,0.0,US,1707079954
454,oum hadjer,13.2954,19.6966,23.92,16,23,5.67,TD,1707079954
455,comrat,46.3003,28.6572,7.37,72,100,5.58,MD,1707079954
456,nyaunglebin,17.95,96.7333,17.24,60,2,0.7,MM,1707079954
457,puerto leguizamo,-0.1934,-74.7819,28.7,80,78,0.35,CO,1707079954
458,miquelon,47.0975,-56.3814,2.0,85,100,17.71,PM,1707079955
459,barro,-6.7167,-38.8667,33.43,26,5,3.47,BR,1707079955
460,happy valley-goose bay,53.3168,-60.3315,-17.83,65,40,1.03,CA,1707079955
461,kiruhura,-2.4773,29.7679,15.54,94,100,1.64,RW,1707079955
462,coyah,9.75,-13.4167,28.53,75,100,0.97,GN,1707079955
463,mili,6.0815,171.735,27.66,77,99,8.11,MH,1707079955
464,xianshuigu,38.985,117.3828,-2.0,64,100,2.0,CN,1707079956
465,la passe,45.5549,-0.8967,8.13,90,97,2.34,FR,1707079743
466,lewistown,40.5992,-77.5714,11.45,65,0,0.0,US,1707079956
467,kismayo,-0.3582,42.5454,27.09,84,62,6.57,SO,1707079956
468,cururupu,-1.8283,-44.8683,27.23,80,11,2.4,BR,1707079956
469,la'ie,21.6477,-157.9253,23.98,65,91,4.47,US,1707079956
470,mirnyy,62.5353,113.9611,-30.43,67,100,1.19,RU,1707079956
471,rikaze,29.25,88.8833,-1.51,27,25,2.05,CN,1707079956
472,inongo,-1.95,18.2667,24.17,79,63,2.06,CD,1707079956
473,tura,25.5198,90.2201,13.14,43,34,1.56,IN,1707079957
474,maumere,-8.6199,122.2111,26.68,82,67,0.9,ID,1707079957
475,munduk,-8.2687,115.0795,17.32,96,100,1.06,ID,1707079957
476,danville,36.586,-79.395,12.79,36,0,5.66,US,1707079957
477,kita,13.0349,-9.4895,28.01,13,12,2.1,ML,1707079957
478,cooper's town,26.8667,-77.5167,20.62,84,100,8.64,BS,1707079764
479,merritt,50.1123,-120.7942,-0.38,69,100,0.89,CA,1707079767
480,misliyah,17.4599,42.5572,24.62,71,4,2.56,SA,1707079958
481,la ligua,-32.4524,-71.2311,23.56,57,100,4.15,CL,1707079958
482,ampanihy,-24.7,44.75,22.32,87,97,2.25,MG,1707079958
483,arafat,21.3594,39.9664,19.18,46,56,2.11,SA,1707079958
484,beloyarskiy,63.7119,66.6722,-28.33,100,84,1.79,RU,1707079958
485,taulaga,-11.0553,-171.0883,29.23,77,100,11.07,AS,1707079958
486,gatchina,59.5764,30.1283,-0.46,95,100,3.96,RU,1707079958
487,san ramon,37.7799,-121.978,15.16,81,100,11.83,US,1707079958
488,carbonear,47.7332,-53.2148,1.91,94,100,12.04,CA,1707079959
489,hammerfest,70.6634,23.6821,-3.75,80,40,3.09,NO,1707079959
490,salto del guaira,-24.0625,-54.3069,33.69,35,85,2.63,PY,1707079959
491,moores mill,34.844,-86.5183,10.56,88,100,2.06,US,1707079959
492,hirara,24.8,125.2833,21.15,88,100,11.83,JP,1707079891
493,klyuchi,52.2667,79.1667,-5.55,91,100,4.55,RU,1707079959
494,bafoulabe,13.8065,-10.8321,29.96,11,13,2.3,ML,1707079959
495,childress,34.4264,-100.204,13.14,62,100,9.77,US,1707079959
496,calexico,32.679,-115.4989,20.05,58,100,3.09,US,1707079960
497,pallasovka,50.05,46.8833,0.91,98,100,6.04,RU,1707079960
498,romblon,12.5751,122.2708,26.08,85,6,6.4,PH,1707079960
499,ambon,-3.6954,128.1814,26.71,14,40,1.54,ID,1707079960
500,saint-paul,-21.0096,55.2707,24.05,74,76,0.83,RE,1707079960
501,dalandzadgad,43.5708,104.425,-14.65,92,81,1.92,MN,1707079960
502,wimauma,27.7125,-82.299,24.48,83,39,3.13,US,1707079960
503,youghal,51.95,-7.8506,9.56,95,74,8.22,IE,1707079960
504,simanggang,1.2472,111.4528,25.01,94,100,0.0,MY,1707079788
505,makoua,0.0069,15.6333,29.64,46,100,1.27,CG,1707079961
506,puerto real,36.5282,-6.1901,13.47,82,0,1.03,ES,1707079961
507,jiagedaqi,50.4167,124.1167,-26.64,99,15,1.48,CN,1707079961
508,kapa'a,22.0752,-159.319,23.39,64,75,8.75,US,1707079961
509,ma'rib,15.4591,45.3253,20.28,43,5,0.87,YE,1707079961
510,urangan,-25.3,152.9,25.11,90,70,2.68,AU,1707079961
511,juneau,58.3019,-134.4197,3.0,95,100,4.12,US,1707079961
512,teguise,29.0605,-13.564,19.12,49,0,6.69,ES,1707079962
513,anori,-3.7728,-61.6442,27.03,90,100,1.27,BR,1707079962
514,namtsy,62.7161,129.6658,-42.69,100,62,0.74,RU,1707079962
515,navolato,24.7672,-107.6944,27.1,20,0,6.58,MX,1707079962
516,i-n-salah,27.1935,2.4607,15.59,34,0,8.8,DZ,1707079962
517,katsuura,35.1333,140.3,7.29,77,100,4.64,JP,1707079962
518,kitimat,54.0524,-128.6534,2.17,77,10,1.79,CA,1707079962
519,malango,-2.9627,119.9001,20.44,96,100,1.08,ID,1707079962
520,sarina,-21.4333,149.2167,27.56,1,100,0.54,AU,1707079963
521,grand falls-windsor,48.9332,-55.6649,0.28,94,100,3.58,CA,1707079963
522,mount isa,-20.7333,139.5,24.87,78,35,3.09,AU,1707079751
523,kristiansund,63.1115,7.732,0.03,93,75,2.57,NO,1707079963
524,san pedro pochutla,15.7333,-96.4667,31.26,38,9,5.68,MX,1707079963
525,pachino,36.7186,15.0907,12.65,67,0,1.68,IT,1707079963
526,vanimo,-2.6741,141.3028,25.65,91,100,2.55,PG,1707079963
527,bengkulu,-3.8004,102.2655,24.76,90,100,1.64,ID,1707079760
528,serhetabat,35.2799,62.3438,4.33,44,15,2.88,TM,1707079963
529,fray bentos,-33.1325,-58.2956,32.17,33,100,7.1,UY,1707079964
530,despenaderos,-31.8163,-64.2899,30.54,38,27,3.62,AR,1707079964
531,fort bragg,35.139,-79.006,13.79,40,0,4.12,US,1707079964
532,nampula,-15.1165,39.2666,24.97,94,20,1.54,MZ,1707079964
533,keningau,5.3378,116.1602,21.67,99,97,0.81,MY,1707079964
534,tevriz,57.509,72.4042,-8.81,93,100,4.11,RU,1707079964
535,horta,38.5333,-28.6333,16.8,94,75,7.2,PT,1707079964
536,novo oriente,-5.5344,-40.7742,32.1,31,92,2.07,BR,1707079964
537,baidoa,3.1138,43.6498,24.75,69,80,6.13,SO,1707079965
538,amuntai,-2.4177,115.2494,22.9,99,99,0.85,ID,1707079965
539,selfoss,63.9331,-20.9971,-13.86,82,14,4.34,IS,1707079965
540,nagqu,31.5,92.0,-6.39,23,75,10.84,CN,1707079965
541,hagere hiywet,8.9833,37.85,16.13,77,76,1.75,ET,1707079965
542,topolobampo,25.6,-109.05,24.32,33,0,8.01,MX,1707079965
543,boyolangu,-8.1181,111.8935,23.85,93,100,0.61,ID,1707079965
544,axtla de terrazas,21.4667,-98.85,31.51,24,0,2.93,MX,1707079966
545,belmonte,-15.8631,-38.8828,26.67,78,39,2.85,BR,1707079966
546,nouadhibou,20.931,-17.0347,23.99,33,13,4.12,MR,1707079966
547,strezhevoy,60.7333,77.5889,-15.02,96,100,3.58,RU,1707079966
548,sainte-anne-des-monts,49.124,-66.4924,-5.07,42,5,3.09,CA,1707079966
549,kui buri,12.0828,99.8543,23.27,72,44,2.06,TH,1707079966
550,kilindoni,-7.9139,39.6668,28.3,75,100,5.92,TZ,1707079769
551,sao felix do xingu,-6.6447,-51.995,26.03,94,54,1.07,BR,1707079966
552,bandon,51.7469,-8.7425,9.77,85,91,8.11,IE,1707079967
553,medina,24.4686,39.6142,18.24,14,0,1.54,SA,1707079967
554,luganville,-15.5333,167.1667,28.41,78,55,1.48,VU,1707079967
555,las animas,-39.8087,-73.2182,28.08,31,0,3.64,CL,1707079967
556,winkler,49.1817,-97.941,3.43,100,100,1.54,CA,1707079967
557,nchelenge,-9.3451,28.734,22.59,79,99,1.07,ZM,1707079967
558,ceeldheer,3.8488,47.1806,24.64,81,92,8.91,SO,1707079967
559,kuching,1.55,110.3333,27.24,94,40,1.34,MY,1707079967
560,bartica,6.4,-58.6167,32.18,55,91,3.35,GY,1707079968
561,bochum,51.4833,7.2167,10.48,98,100,2.24,DE,1707079968
562,meulaboh,4.1363,96.1285,24.93,88,98,0.04,ID,1707079968
563,tafuna,-14.3358,-170.72,28.97,94,100,5.66,AS,1707079968
564,ocean shores,46.9737,-124.1563,11.92,75,20,6.69,US,1707079968
565,achinsk,56.2694,90.4993,-5.72,83,100,4.92,RU,1707079968
566,sudislavl',57.8817,41.7083,-16.62,99,100,1.65,RU,1707079968
567,rexburg,43.826,-111.7897,2.73,60,40,4.63,US,1707079702
568,okha,53.5739,142.9478,-23.06,93,15,5.71,RU,1707079968
569,shakawe,-18.3667,21.85,23.8,70,100,3.17,BW,1707079969
570,buwenge,0.6422,33.1744,21.0,82,100,0.5,UG,1707079969
571,ulanhot,46.0833,122.0833,-16.59,81,100,0.96,CN,1707079969
572,bemidji,47.4736,-94.8803,2.81,97,100,0.0,US,1707079969
573,sao vicente,-23.9631,-46.3919,26.1,59,75,3.09,BR,1707079969
574,kuanda,56.3161,116.0806,-27.44,97,100,0.39,RU,1707079969
575,concepcion del oro,24.6333,-101.4167,14.32,17,0,9.75,MX,1707079969
576,manta,-0.95,-80.7333,29.88,83,20,6.69,EC,1707079969
577,tsengel,49.4783,100.8894,-20.28,93,11,2.94,MN,1707079970
578,cape canaveral,28.4058,-80.6048,23.04,84,100,6.17,US,1707079970
579,bonny,4.4522,7.1681,28.04,76,99,4.41,NG,1707079970
580,lerwick,60.1545,-1.1494,5.0,60,100,9.88,GB,1707079970
581,dhidhdhoo,6.8833,73.1,27.48,77,37,3.61,MV,1707079970
582,manicore,-5.8092,-61.3003,26.68,90,100,1.6,BR,1707079970
583,mareeba,-17.0,145.4333,24.13,91,99,0.53,AU,1707079970
584,altai,46.3722,96.2583,-20.38,72,2,0.79,MN,1707079970
585,benguela,-12.5763,13.4055,27.99,74,97,1.08,AO,1707079971
586,portland,45.5234,-122.6762,14.18,65,90,4.47,US,1707079781
587,ternate,0.8,127.4,26.44,82,95,2.62,ID,1707079971
588,ma'an,26.9775,110.7211,-0.1,92,100,1.79,CN,1707079971
589,olyokminsk,60.3736,120.4264,-35.11,100,63,0.5,RU,1707079971
590,okulovka,58.4008,33.2908,-1.91,95,100,3.53,RU,1707079971
591,aurad,18.25,77.4333,22.6,50,0,2.19,IN,1707079971
592,ulladulla,-35.35,150.4667,23.2,77,100,2.56,AU,1707079971
593,umarkot,25.3616,69.7362,19.01,59,32,2.01,PK,1707079972
594,bawal,28.0833,76.5833,13.48,92,21,0.61,IN,1707079972
595,kouroussa,10.65,-9.8833,28.18,17,97,1.47,GN,1707079972
596,neenah,44.1858,-88.4626,8.45,79,0,0.0,US,1707079972
597,xiaoshi,41.2971,124.1209,-10.3,81,100,0.97,CN,1707079972
598,padang,-0.9492,100.3543,25.03,83,99,1.82,ID,1707079972
