City_ID,City,Lat,Lng,Max Temp,Humidity,Cloudiness,Wind Speed,Country,Date
0,anadyr,64.75,177.4833,-22.72,77,100,7.0,RU,1707176087
1,maracaibo,10.6317,-71.6406,27.51,76,38,4.99,VE,1707176087
2,adamovka,51.5223,59.9396,0.52,98,99,10.81,RU,1707176087
3,port elizabeth,-33.918,25.5701,21.17,95,100,5.14,ZA,1707176087
4,puerto lempira,15.2667,-83.7667,28.08,74,40,6.17,HN,1707176087
5,lihue,21.9789,-159.3672,25.58,64,75,8.75,US,1707176087
6,marondera,-18.1853,31.5519,16.96,69,26,1.44,ZW,1707176088
7,gopalpur,19.2667,84.9167,22.03,88,0,5.24,IN,1707176088
8,grytviken,-54.2811,-36.5092,6.42,80,92,6.6,GS,1707176088
9,grand gaube,-20.0064,57.6608,24.22,81,59,0.45,MU,1707176088
10,bilibino,68.0546,166.4372,-33.65,99,100,0.87,RU,1707176088
11,la malbaie,47.6575,-70.1559,-3.53,91,97,3.02,CA,1707176088
12,utrik,11.2278,169.8474,26.42,83,29,8.81,MH,1707176057
13,zemio,5.0314,25.1361,22.97,30,28,1.4,CF,1707176088
14,waitangi,-43.9535,-176.5597,19.34,87,98,7.79,NZ,1707176089
15,kruisfontein,-34.0033,24.7314,19.94,93,0,3.23,ZA,1707176089
16,college,64.8569,-147.8028,-12.89,76,40,0.0,US,1707176037
17,hasaki,35.7333,140.8333,4.05,79,100,10.27,JP,1707176072
18,hermanus,-34.4187,19.2345,21.0,86,40,2.22,ZA,1707176089
19,port-aux-francais,-49.35,70.2167,6.11,78,98,12.71,TF,1707176033
20,meadow lakes,61.6247,-149.6011,1.77,92,100,1.54,US,1707176089
21,newport,51.5877,-2.9984,11.73,93,100,10.97,GB,1707175867
22,invercargill,-46.4,168.35,19.45,86,100,1.79,NZ,1707175903
23,vorgashor,67.5833,63.95,-24.99,98,40,2.56,RU,1707176090
24,yuzhno-kurilsk,44.0306,145.8556,-5.9,60,73,6.3,RU,1707176090
25,adamstown,-25.066,-130.1015,24.32,82,100,6.79,PN,1707176040
26,geraldton,-28.7667,114.6,23.23,27,60,12.35,AU,1707176090
27,hawaiian paradise park,19.5933,-154.9731,24.37,74,100,1.54,US,1707176090
28,burang,30.25,81.1667,-17.28,59,35,2.2,CN,1707176090
29,ushuaia,-54.8,-68.3,10.81,54,0,7.2,AR,1707175812
30,klyuchi,52.2667,79.1667,-9.28,91,68,4.28,RU,1707176091
31,al jawf,29.5,38.75,8.02,53,0,3.73,SA,1707176091
32,avarua,-21.2078,-159.775,30.03,79,20,7.2,CK,1707176091
33,ribeira grande,38.5167,-28.7,17.65,93,100,4.92,PT,1707176091
34,tougan,13.0667,-3.0667,21.72,15,96,4.65,BF,1707176091
35,tolanaro,-25.0319,46.9987,23.04,94,75,5.14,MG,1707176091
36,chimore,-16.9833,-65.1333,26.64,77,51,1.62,BO,1707176091
37,nago,26.5881,127.9761,18.47,68,21,4.98,JP,1707176091
38,longyearbyen,78.2186,15.6401,-4.09,74,75,4.63,SJ,1707176092
39,blackmans bay,-43.0167,147.3167,16.52,49,46,0.45,AU,1707176092
40,albany,42.6001,-73.9662,-0.36,50,1,2.57,US,1707176092
41,olonkinbyen,70.9221,-8.7187,-2.33,68,75,11.0,SJ,1707176084
42,kodiak,57.79,-152.4072,3.73,65,0,2.57,US,1707176092
43,sillamae,59.3997,27.7547,-3.64,89,100,5.39,EE,1707176092
44,fort bragg,35.139,-79.006,11.91,38,0,2.06,US,1707176092
45,mar del plata,-38.0023,-57.5575,21.08,83,75,10.28,AR,1707176040
46,murzuq,25.9155,13.9184,10.37,46,0,3.01,LY,1707175896
47,al ghayzah,16.2079,52.176,22.56,66,3,2.47,YE,1707176093
48,portland,45.5234,-122.6762,9.95,91,100,4.12,US,1707175670
49,itoman,26.1247,127.6694,18.43,63,75,6.69,JP,1707176093
50,edinburgh of the seven seas,-37.0676,-12.3116,15.71,63,1,1.46,SH,1707176093
51,puerto natales,-51.7236,-72.4875,10.5,71,45,0.32,CL,1707175894
52,harper,4.375,-7.7169,27.21,80,28,2.44,LR,1707176093
53,aasiaat,68.7098,-52.8699,-29.67,87,22,3.76,GL,1707176093
54,antigonish,45.6169,-61.9986,0.64,96,100,1.79,CA,1707176093
55,solnechnyy,50.7214,136.6319,-27.76,92,25,0.84,RU,1707176093
56,kununurra,-15.7667,128.7333,30.99,62,2,0.0,AU,1707176094
57,jamestown,42.097,-79.2353,0.77,84,100,4.12,US,1707175845
58,enewetak,11.3474,162.3373,26.67,72,88,6.46,MH,1707176094
59,fort st. john,56.2499,-120.8529,-5.06,63,75,3.09,CA,1707175795
60,ujae,8.9322,165.7642,27.28,80,97,7.98,MH,1707176094
61,vilyuchinsk,52.9306,158.4028,-8.85,70,78,3.11,RU,1707176094
62,egersund,58.4513,5.9997,1.16,87,100,3.92,NO,1707176094
63,rosario del tala,-32.3029,-59.1455,32.8,39,87,5.39,AR,1707176094
64,bandar abbas,27.1865,56.2808,10.99,62,0,3.09,IR,1707176095
65,fisterra,42.9049,-9.2629,10.01,74,99,0.62,ES,1707176095
66,svirsk,53.0858,103.3325,-19.67,99,99,1.39,RU,1707176095
67,kingston,17.997,-76.7936,25.67,93,100,7.2,JM,1707175443
68,ilulissat,69.2167,-51.1,-20.99,71,40,0.51,GL,1707176095
69,atafu village,-8.5421,-172.5159,28.62,79,100,12.39,TK,1707176095
70,mount pearl,47.5166,-52.7813,0.81,98,100,7.2,CA,1707176095
71,iqaluit,63.7506,-68.5145,-17.95,77,75,1.03,CA,1707176095
72,cidreira,-30.1811,-50.2056,24.27,87,58,5.36,BR,1707176095
73,gadzhiyevo,69.2551,33.3362,-19.39,100,99,3.21,RU,1707176096
74,taro,-8.3862,115.28,24.0,86,47,0.9,ID,1707176096
75,stanley,54.868,-1.6985,10.4,80,75,6.17,GB,1707176096
76,chernyshevskiy,63.0128,112.4714,-17.83,98,100,0.81,RU,1707176096
77,bethel,41.3712,-73.414,2.19,46,0,5.14,US,1707176096
78,fort mcmurray,56.7268,-111.381,-10.23,73,100,3.6,CA,1707175814
79,belmonte,-15.8631,-38.8828,25.65,87,50,2.22,BR,1707176096
80,lebu,-37.6167,-73.65,17.7,89,95,2.88,CL,1707176096
81,thompson,55.7435,-97.8558,-1.91,100,100,1.54,CA,1707175935
82,san patricio,28.017,-97.5169,18.92,64,67,4.72,US,1707176097
83,georgetown,5.4112,100.3354,26.96,86,20,1.54,MY,1707176097
84,walvis bay,-22.9575,14.5053,19.53,88,40,2.57,NA,1707176097
85,tangalle,6.024,80.7911,23.28,87,94,4.77,LK,1707176097
86,fale old settlement,-9.3852,-171.2468,28.85,79,92,11.97,TK,1707176097
87,al kharj,24.155,47.3346,14.32,45,98,1.19,SA,1707176097
88,uturoa,-16.7333,-151.4333,27.08,91,100,6.98,PF,1707176097
89,holualoa,19.6228,-155.9522,23.91,78,40,5.14,US,1707175937
90,punta arenas,-53.15,-70.9167,13.06,50,20,6.69,CL,1707176029
91,lorengau,-2.0226,147.2712,29.55,73,91,4.69,PG,1707176098
92,udachny,66.4167,112.4,-23.64,76,100,1.83,RU,1707176098
93,saipan,15.1355,145.701,27.39,61,40,6.69,MP,1707176098
94,mahdia,35.5047,11.0622,11.97,50,0,2.53,TN,1707176098
95,bantogon,6.5333,124.0333,26.25,80,92,0.55,PH,1707176098
96,hithadhoo,-0.6,73.0833,28.35,75,100,3.35,MV,1707176098
97,selfoss,63.9331,-20.9971,-13.26,85,3,4.11,IS,1707176099
98,tazacorte,28.629,-17.9293,20.64,24,0,4.12,ES,1707176099
99,afaahiti,-17.75,-149.2833,24.93,89,100,9.72,PF,1707176099
100,mangai,-4.05,19.5333,20.77,97,88,0.45,CD,1707176099
101,kapa'a,22.0752,-159.319,25.99,64,75,8.75,US,1707176099
102,auxonne,47.1926,5.3873,5.2,100,49,1.34,FR,1707176099
103,coyhaique,-45.5752,-72.0662,17.97,42,20,1.54,CL,1707176099
104,hualien city,23.9769,121.6044,18.4,90,90,2.99,TW,1707176099
105,rio grande,-32.035,-52.0986,25.06,81,79,6.22,BR,1707176041
106,dek'emhare,15.07,39.0475,12.12,89,31,2.4,ER,1707176100
107,barcelos,41.5388,-8.6151,12.18,87,100,0.74,PT,1707176100
108,kerns,46.9009,8.2765,1.84,100,100,1.03,CH,1707176100
109,kilindoni,-7.9139,39.6668,28.12,77,52,5.92,TZ,1707176100
110,badger,64.8,-147.5333,-12.94,77,40,0.0,US,1707176100
111,novyy urgal,51.0736,132.5642,-28.89,99,100,0.49,RU,1707176100
112,cuauhtemoc,28.4167,-106.8667,15.95,18,83,5.7,MX,1707176100
113,oriximina,-1.7656,-55.8661,28.8,64,97,0.73,BR,1707176100
114,timimoun,29.2639,0.231,12.21,47,0,5.14,DZ,1707176101
115,tazovsky,67.4667,78.7,-25.2,100,72,4.15,RU,1707176101
116,lobujya,27.95,86.8167,-17.45,27,0,0.94,NP,1707176101
117,kuusamo,65.9667,29.1833,-21.98,84,75,1.03,FI,1707176101
118,kismayo,-0.3582,42.5454,26.58,85,61,5.22,SO,1707176101
119,west island,-12.1568,96.8225,26.99,89,40,3.6,CC,1707176101
120,gadani,25.1185,66.7299,18.12,72,46,3.22,PK,1707176101
121,dryden,49.7833,-92.7503,3.16,75,0,3.09,CA,1707176101
122,shibata,37.95,139.3333,0.93,100,75,2.57,JP,1707176102
123,bahia honda,22.9036,-83.1592,19.6,70,42,10.23,CU,1707176102
124,jablanica,43.6603,17.7617,2.04,92,15,1.45,BA,1707176102
125,qaqortoq,60.7167,-46.0333,-21.09,70,0,2.98,GL,1707176102
126,warmbad,-28.45,18.7333,23.78,33,0,3.24,NA,1707176102
127,masterton,-40.9597,175.6575,27.28,18,29,3.23,NZ,1707176102
128,ust-nera,64.5667,143.2,-29.14,84,100,0.51,RU,1707176103
129,zunyi,27.6867,106.9072,0.93,93,100,0.94,CN,1707176103
130,laojunmiao,39.8333,97.7333,-9.99,82,100,2.58,CN,1707176103
131,east london,-33.0153,27.9116,22.91,86,0,1.94,ZA,1707176103
132,zhigalovo,54.8097,105.1578,-18.42,99,99,0.35,RU,1707176103
133,rusape,-18.5278,32.1284,18.58,68,16,2.44,ZW,1707176103
134,alice springs,-23.7,133.8833,26.79,32,75,6.17,AU,1707176103
135,mondariz,42.2311,-8.4584,11.22,93,0,1.03,ES,1707176104
136,puerto ayora,-0.7393,-90.3518,25.86,94,76,1.79,EC,1707176104
137,shibetsu,43.659,145.132,-8.67,72,52,3.44,JP,1707176104
138,isafjordur,66.0755,-23.124,-8.39,77,100,5.12,IS,1707176104
139,sitka,57.0531,-135.33,3.94,87,40,0.0,US,1707176104
140,lethbridge,49.7,-112.8186,-5.46,93,100,2.06,CA,1707176104
141,aydarken,39.9443,71.3429,-8.14,48,83,5.27,KG,1707176104
142,remire-montjoly,4.9167,-52.2667,27.02,89,75,1.54,GF,1707176105
143,carutapera,-1.195,-46.02,25.61,90,33,2.91,BR,1707176105
144,santa rosa,14.3122,121.1114,26.71,82,79,2.1,PH,1707175855
145,taltal,-25.4,-70.4833,22.25,81,0,1.84,CL,1707176105
146,whitehorse,60.7161,-135.0538,-19.57,84,100,2.57,CA,1707175940
147,santa cecilia,-26.9608,-50.4269,17.39,97,100,1.05,BR,1707175854
148,aras-asan,8.8908,126.3033,26.0,81,100,1.23,PH,1707176105
149,vicente guerrero,19.1194,-98.1708,23.66,13,0,4.51,MX,1707176106
150,chonchi,-42.6128,-73.8092,20.56,74,62,1.67,CL,1707175908
151,isangel,-19.55,169.2667,26.16,89,100,4.65,VU,1707176056
152,malvan,16.0667,73.4667,24.59,59,0,3.37,IN,1707176106
153,karratha,-20.7377,116.8463,28.98,58,14,3.28,AU,1707176106
154,tocopilla,-22.092,-70.1979,23.85,71,1,0.54,CL,1707176106
155,levuka,50.1834,-105.4011,0.84,70,100,2.57,CA,1707176106
156,kwang binh,17.4833,106.6,22.28,94,43,0.22,VN,1707176107
157,midvagur,62.0511,-7.1939,0.46,80,100,9.26,FO,1707176107
158,smidovich,48.6,133.8167,-27.96,100,82,0.51,RU,1707176107
159,kendari,-3.945,122.4989,25.36,88,100,0.83,ID,1707176107
160,homer,59.6425,-151.5483,-1.07,85,100,4.92,US,1707176107
161,berdigestyakh,62.0989,126.6992,-39.09,100,77,0.85,RU,1707176107
162,san juan,-31.5375,-68.5364,34.6,29,23,2.41,AR,1707175831
163,yerofey pavlovich,53.9667,121.9667,-25.47,96,5,1.61,RU,1707176107
164,bikenibeu village,1.3673,173.1241,30.98,74,75,4.12,KI,1707176108
165,yellowknife,62.456,-114.3525,-21.36,77,0,1.03,CA,1707175817
166,bubaque,11.2833,-15.8333,26.35,75,0,5.1,GW,1707176108
167,queenstown,-31.8976,26.8753,17.36,85,3,0.37,ZA,1707176108
168,palmer,42.1584,-72.3287,2.01,38,0,3.09,US,1707176108
169,port isabel,26.0734,-97.2086,22.05,66,0,8.94,US,1707176108
170,la passe,45.5549,-0.8967,6.13,81,100,1.68,FR,1707176108
171,juneau,58.3019,-134.4197,2.45,97,100,2.06,US,1707176022
172,imperatriz,-5.5264,-47.4917,24.68,89,92,1.66,BR,1707176109
173,nova vicosa,-17.8919,-39.3719,25.52,88,80,3.13,BR,1707176109
174,ulanhot,46.0833,122.0833,-13.78,79,100,1.18,CN,1707176109
175,papatowai,-46.5619,169.4708,20.35,62,100,3.56,NZ,1707176109
176,kone,-21.0595,164.8658,26.75,87,100,3.01,NC,1707176109
177,san andres,12.5847,-81.7006,28.01,78,40,4.12,CO,1707175874
178,les avirons,-21.2418,55.3394,20.05,68,0,3.09,RE,1707176109
179,antsiranana,-12.2787,49.2917,24.19,93,76,1.97,MG,1707176110
180,novi sad,45.2517,19.8369,4.0,78,34,2.32,RS,1707175560
181,chicoana,-25.1009,-65.5331,25.03,68,100,1.48,AR,1707176110
182,codrington,-38.2667,141.9667,17.99,49,4,5.7,AU,1707176110
183,bridgewater,44.3835,-64.5155,0.82,83,96,6.69,CA,1707175819
184,talnakh,69.4865,88.3972,-24.7,89,78,2.34,RU,1707176110
185,port mathurin,-19.6833,63.4167,25.69,68,72,7.05,MU,1707176110
186,callao,-12.0667,-77.15,28.16,61,0,5.14,PE,1707176111
187,tiksi,71.6872,128.8694,-32.28,96,59,1.53,RU,1707176111
188,betio village,1.358,172.9211,31.02,79,95,5.7,KI,1707176111
189,petropavlovsk-kamchatsky,53.0452,158.6483,-9.67,80,75,3.13,RU,1707175852
190,mahina,-17.5065,-149.489,25.87,89,75,6.17,PF,1707176111
191,barra de santo antonio,-9.4047,-35.5072,27.6,81,30,3.02,BR,1707176111
192,tofol,5.3248,163.0078,28.88,74,75,7.2,FM,1707176111
193,hillsboro,45.5229,-122.9898,9.34,86,100,2.57,US,1707175894
194,balabac,7.9868,117.0645,27.11,74,74,5.49,PH,1707176112
195,khanty-mansiysk,61.0042,69.0019,-11.94,79,75,0.0,RU,1707176112
196,mascote,-15.5631,-39.3025,23.17,97,46,0.36,BR,1707176112
197,riversdale,18.1659,-76.9642,24.5,92,14,1.76,JM,1707176112
198,brokopondo,4.75,-55.1667,26.93,79,98,5.15,SR,1707176112
199,pingyin,36.2831,116.4453,-5.31,88,40,0.67,CN,1707176112
200,gizo,-8.103,156.8419,28.48,80,98,6.07,SB,1707176112
201,khalkhal,37.6189,48.5258,-1.88,92,97,9.38,IR,1707176113
202,haiku-pauwela,20.9219,-156.3051,26.25,64,20,11.83,US,1707176113
203,moyynkum,44.2914,72.9469,-2.97,85,95,3.84,KZ,1707176113
204,coquimbo,-29.9533,-71.3436,19.85,82,40,4.63,CL,1707175997
205,forster,-32.1667,152.5167,30.21,70,64,1.48,AU,1707175752
206,port lincoln,-34.7333,135.8667,18.15,53,0,5.02,AU,1707176090
207,bundaberg north,-24.8551,152.3425,31.23,78,15,2.24,AU,1707176113
208,yanykurgan,43.915,67.2481,1.39,69,98,7.46,KZ,1707176114
209,vila franca do campo,37.7167,-25.4333,18.27,99,95,6.09,PT,1707176114
210,luderitz,-26.6481,15.1594,18.33,90,1,2.66,NA,1707176114
211,vanino,49.0869,140.2543,-18.37,75,5,1.5,RU,1707176114
212,undurkhaan,47.3194,110.6556,-25.07,96,27,1.46,MN,1707176114
213,tromso,69.6496,18.957,-4.99,63,0,3.09,NO,1707176098
214,makhambet,47.6667,51.5833,1.81,98,100,7.14,KZ,1707176114
215,vadso,70.0744,29.7487,-8.91,86,20,4.12,NO,1707176114
216,malango,-2.9627,119.9001,22.79,85,99,0.85,ID,1707176115
217,isla del bosque,22.7333,-105.85,24.34,52,1,4.15,MX,1707176115
218,restrepo,3.822,-76.5224,21.19,96,99,1.68,CO,1707176115
219,bandon,51.7469,-8.7425,10.77,80,100,8.29,IE,1707176115
220,pingliang,35.5392,106.6861,-4.2,67,100,1.16,CN,1707176115
221,kovur,14.4833,79.9833,20.8,93,0,2.39,IN,1707176115
222,essaouira,31.5125,-9.77,11.72,54,40,2.06,MA,1707176116
223,singerei,47.6667,28.1667,5.16,88,100,3.61,MD,1707176116
224,kovdor,67.5662,30.4758,-27.13,100,100,0.6,RU,1707176116
225,mount gambier,-37.8333,140.7667,18.76,42,3,3.55,AU,1707176116
226,margaret river,-33.95,115.0667,16.43,62,53,3.8,AU,1707176076
227,colonia,50.9333,6.95,9.47,78,100,4.63,DE,1707176116
228,mont-laurier,46.5501,-75.4993,-3.21,96,45,1.56,CA,1707176116
229,kouango,4.9934,19.9619,27.04,28,13,0.07,CF,1707176116
230,al abyar,32.19,20.5965,11.09,91,13,3.23,LY,1707176117
231,bluefields,12.0137,-83.7635,30.04,79,20,2.06,NI,1707176117
232,garoowe,8.4054,48.4845,20.81,72,35,3.38,SO,1707176117
233,al hindiyah,32.5433,44.2225,13.53,46,90,4.63,IQ,1707176117
234,crane,31.3974,-102.3501,14.62,39,13,0.65,US,1707176117
235,thai binh,20.45,106.3333,20.1,95,100,4.48,VN,1707176117
236,urengoy,65.9667,78.3667,-24.41,100,98,3.88,RU,1707176117
237,sinabang,2.4803,96.3801,26.82,81,100,0.8,ID,1707176117
238,dudinka,69.4058,86.1778,-25.18,97,78,1.79,RU,1707176118
239,prado,-17.3411,-39.2208,25.46,89,69,2.55,BR,1707176118
240,puerto deseado,-47.7503,-65.8938,16.61,67,1,8.16,AR,1707176118
241,reggane,26.7158,0.1714,15.44,23,66,4.81,DZ,1707176118
242,nogliki,51.8333,143.1667,-21.48,99,51,3.58,RU,1707176118
243,gumla,23.05,84.55,14.89,81,8,2.11,IN,1707176118
244,meybod,32.2501,54.0166,5.01,23,1,0.88,IR,1707176118
245,wailua homesteads,22.0669,-159.378,25.24,65,75,8.75,US,1707176087
246,mejit,10.2753,170.8646,26.83,81,69,8.07,MH,1707176119
247,crucecita,-28.95,-58.9833,31.31,42,18,4.88,AR,1707176119
248,bredasdorp,-34.5322,20.0403,21.37,78,19,1.22,ZA,1707176058
249,iquitos,-3.7481,-73.2472,29.02,74,40,1.54,PE,1707175925
250,brandon,27.9378,-82.2859,18.18,79,0,1.79,US,1707175838
251,twin falls,42.3505,-114.6445,10.19,50,40,8.23,US,1707176119
252,narvik,68.4384,17.4272,-4.33,78,89,2.98,NO,1707176119
253,kapuskasing,49.4169,-82.4331,-2.95,93,100,2.57,CA,1707176119
254,khandyga,62.6667,135.6,-43.35,100,61,0.93,RU,1707176120
255,muisne,0.6,-80.0333,26.27,88,67,2.57,EC,1707176120
256,man,7.4125,-7.5538,24.09,25,6,0.97,CI,1707176120
257,hamilton,39.1834,-84.5333,9.35,63,0,5.14,US,1707175912
258,saldanha,-33.0117,17.9442,20.03,97,57,2.01,ZA,1707176120
259,okha,53.5739,142.9478,-21.45,97,42,5.57,RU,1707176120
260,daru,-9.0763,143.2092,28.05,82,100,3.34,PG,1707176120
261,barabai,-2.5833,115.3833,25.7,82,94,0.48,ID,1707176121
262,vico del gargano,41.8983,15.9576,5.7,81,9,2.3,IT,1707176121
263,kuraymah,18.55,31.85,15.22,18,92,6.97,SD,1707176121
264,nyurba,63.2842,118.3319,-26.4,100,99,0.73,RU,1707176121
265,bunia,1.5667,30.25,17.7,84,79,1.47,CD,1707176121
266,lagoa,39.05,-27.9833,16.52,91,98,6.29,PT,1707176121
267,susuman,62.7833,148.1667,-28.9,89,100,1.34,RU,1707176121
268,arraial do cabo,-22.9661,-42.0278,25.98,83,40,3.09,BR,1707176088
269,raja,8.4596,25.678,21.8,22,6,2.98,SS,1707176122
270,lashio,22.9333,97.75,9.11,81,0,0.39,MM,1707176122
271,hobyo,5.3505,48.5268,25.85,79,86,7.09,SO,1707176122
272,ambovombe,-25.1667,46.0833,22.39,93,99,2.03,MG,1707176122
273,filadelfia,39.9523,-75.1638,6.2,57,0,2.57,US,1707176008
274,lerwick,60.1545,-1.1494,4.0,98,100,12.69,GB,1707176122
275,danja,11.3764,7.5625,17.02,17,8,6.12,NG,1707176122
276,port alfred,-33.5906,26.891,20.66,96,7,0.45,ZA,1707176123
277,tralee,52.2704,-9.7026,10.55,87,100,6.05,IE,1707176123
278,al kharijah,25.4514,30.5464,10.55,47,0,2.87,EG,1707176123
279,sirjan,29.452,55.6814,2.82,25,0,3.02,IR,1707176123
280,nouadhibou,20.931,-17.0347,20.99,43,8,3.6,MR,1707176123
281,ghadamis,30.1337,9.5007,12.14,47,0,3.2,LY,1707176123
282,concepcion,-36.827,-73.0498,18.89,82,40,5.14,CL,1707175925
283,bamboo flat,11.7,92.7167,22.05,94,9,0.0,IN,1707176123
284,la ronge,55.1001,-105.2842,-4.86,80,100,3.09,CA,1707176059
285,shimokizukuri,40.8061,140.3861,-0.27,70,78,2.3,JP,1707176124
286,egilsstadir,65.2653,-14.3948,-10.05,73,0,3.6,IS,1707176124
287,ancud,-41.8697,-73.8203,15.04,90,90,3.13,CL,1707176124
288,lai chau,22.3997,103.4517,12.45,70,0,0.53,VN,1707176124
289,victorica,-36.2151,-65.4359,30.99,37,64,1.53,AR,1707176124
290,vrontados,38.4089,26.1328,14.64,78,0,4.4,GR,1707176129
291,olyokminsk,60.3736,120.4264,-21.09,94,94,0.95,RU,1707176129
292,arys,42.4252,68.795,2.6,65,96,3.54,KZ,1707176129
293,saint-philippe,-21.3585,55.7679,21.77,73,79,3.21,RE,1707176129
294,touros,-5.1989,-35.4608,27.58,77,26,5.38,BR,1707176129
295,pangkalpinang,-2.1333,106.1333,25.74,87,100,1.95,ID,1707175872
296,port macquarie,-31.4333,152.9167,29.94,62,62,5.2,AU,1707176130
297,maymana,35.9214,64.7836,5.34,39,0,4.28,AF,1707176130
298,leava,-14.3,-178.1667,28.57,79,100,5.43,WF,1707176130
299,bim son,20.0781,105.8603,20.96,95,100,2.27,VN,1707176130
300,carnarvon,-24.8667,113.6333,28.85,32,10,10.78,AU,1707176130
301,gobabis,-22.45,18.9667,25.12,49,86,4.47,NA,1707176131
302,bereeda,11.8704,51.0579,24.22,81,11,1.51,SO,1707176131
303,happy valley-goose bay,53.3168,-60.3315,-11.83,79,75,3.09,CA,1707176131
304,constantia,44.1833,28.65,9.38,77,54,7.61,RO,1707176131
305,shimoda,34.6667,138.95,7.2,93,100,6.62,JP,1707176131
306,basyayla,36.7534,32.6802,3.47,70,9,3.34,TR,1707176131
307,polyarnyy,69.1989,33.4478,-18.48,100,98,3.37,RU,1707176131
308,la'ie,21.6477,-157.9253,26.98,64,22,6.26,US,1707176132
309,thayetmyo,19.3167,95.1833,18.09,49,7,0.64,MM,1707176132
310,lata,40.1629,-8.3327,11.62,87,100,0.36,PT,1707176132
311,bayanhongor,46.7167,100.1167,-27.26,78,19,1.61,MN,1707176132
312,kokoda,-8.8785,147.7407,31.61,57,99,0.17,PG,1707176132
313,puerto maldonado,-12.6,-69.1833,30.22,74,0,0.0,PE,1707176132
314,kupang,-10.1667,123.5833,25.32,100,75,2.06,ID,1707175923
315,wynyard,-41.0,145.7167,17.71,38,1,3.91,AU,1707176133
316,higuera de zaragoza,25.95,-109.2833,26.96,47,72,4.69,MX,1707176133
317,puerto baquerizo moreno,-0.9,-89.6,25.55,79,41,4.85,EC,1707175944
318,broken hill,-31.95,141.4333,20.21,37,1,10.28,AU,1707175861
319,lobito,-12.3481,13.5456,26.97,82,100,2.87,AO,1707176133
320,rikaze,29.25,88.8833,-4.42,32,0,0.77,CN,1707176133
321,vinton,37.281,-79.897,9.31,55,0,1.45,US,1707176133
322,gotha,50.9482,10.7019,7.3,78,100,11.32,DE,1707176133
323,nuuk,64.1835,-51.7216,-12.66,78,75,3.6,GL,1707176134
324,bodden town,19.2833,-81.25,27.0,54,20,8.75,KY,1707176134
325,nizhneangarsk,55.7833,109.55,-16.11,89,100,0.45,RU,1707176134
326,nakhon nayok,14.1667,101.1,24.79,89,58,0.64,TH,1707176134
327,nar'yan-mar,67.6713,53.087,-18.83,97,100,1.79,RU,1707176134
328,mongomo,1.6274,11.3135,21.28,94,24,1.19,GQ,1707176134
329,hanceville,34.0607,-86.7675,15.95,78,25,2.63,US,1707176134
330,son la,21.3167,103.9,13.27,62,0,0.67,VN,1707176135
331,ornskoldsvik,63.2909,18.7153,-7.47,86,40,3.6,SE,1707176135
332,marquette,46.5333,-87.6335,3.76,91,95,0.63,US,1707175958
333,tukrah,32.5341,20.5791,14.36,83,28,4.24,LY,1707176135
334,alaghsas,17.0187,8.0168,17.42,15,99,8.67,NE,1707176135
335,enoch,37.7733,-113.0244,11.14,43,40,9.26,US,1707176135
336,cabo san lucas,22.8909,-109.9124,28.61,32,20,4.12,MX,1707175922
337,zambezi,-13.5432,23.1047,18.88,88,41,2.03,ZM,1707176136
338,san rafael,-34.6177,-68.3301,32.39,32,32,4.2,AR,1707175847
339,lompoc,34.6391,-120.4579,15.94,75,40,4.63,US,1707176136
340,yarmouth,41.7057,-70.2286,2.27,68,100,10.73,US,1707176136
341,lewistown,40.5992,-77.5714,2.31,84,0,0.0,US,1707176136
342,venadillo,4.7193,-74.9292,26.71,82,85,1.49,CO,1707176136
343,saudarkrokur,65.7461,-19.6394,-6.45,92,100,7.23,IS,1707176136
344,ketchikan,55.3422,-131.6461,4.26,75,20,5.14,US,1707176136
345,yamethin,20.4333,96.15,17.6,44,0,0.85,MM,1707176136
346,kargopol',61.5071,38.9456,-24.36,100,99,1.86,RU,1707176137
347,trondheim,63.4305,10.3951,-1.95,90,100,2.24,NO,1707175966
348,iskateley,67.6803,53.1512,-18.88,97,100,1.79,RU,1707176073
349,bodo,67.28,14.405,-4.57,68,0,6.69,NO,1707176137
350,whakatane,-37.9585,176.9854,26.05,79,1,2.68,NZ,1707176137
351,magadan,59.5667,150.8,-20.06,75,100,3.89,RU,1707176137
352,nemuro,43.3236,145.575,-7.16,72,97,5.4,JP,1707176137
353,kailua-kona,19.6406,-155.9956,25.98,78,40,5.14,US,1707176137
354,ola,59.5833,151.2833,-20.99,81,100,4.39,RU,1707176138
355,moapa valley,36.5805,-114.4703,11.42,51,90,2.64,US,1707176138
356,labrador city,52.9463,-66.9114,-21.01,65,0,1.54,CA,1707176138
357,gongchangling,41.1167,123.45,-13.76,95,98,0.79,CN,1707176138
358,rosarito,32.3333,-117.0333,15.27,82,100,6.49,MX,1707176138
359,richland,40.7834,-82.5499,0.47,92,100,7.2,US,1707176138
360,sampit,-2.5333,112.95,25.87,93,100,0.53,ID,1707176138
361,hammerfest,70.6634,23.6821,-9.75,79,0,1.54,NO,1707176138
362,zahedan,29.4963,60.8629,-0.05,47,0,4.12,IR,1707176139
363,toliara,-23.35,43.6667,24.7,87,7,2.91,MG,1707176139
364,miles city,46.4083,-105.8406,8.54,61,0,1.54,US,1707176139
365,tura,25.5198,90.2201,12.48,74,65,1.07,IN,1707176139
366,mountain home,43.133,-115.6912,12.71,47,0,5.66,US,1707176139
367,naze,28.3667,129.4833,15.51,66,7,5.8,JP,1707176139
368,ingre,47.9199,1.8278,6.21,93,100,5.66,FR,1707176140
369,sao joao do piaui,-8.3581,-42.2467,29.77,42,92,1.65,BR,1707176140
370,nueva esperanza,15.2667,-87.6,26.79,72,33,1.78,HN,1707176140
371,ribeira brava,32.65,-17.0667,19.35,70,93,2.64,PT,1707176140
372,san antonio de pale,-1.4014,5.6325,27.66,74,86,1.66,GQ,1707176140
373,saint-francois,46.4154,3.9054,3.69,100,100,1.03,FR,1707176140
374,new norfolk,-42.7826,147.0587,17.18,36,52,3.1,AU,1707176140
375,longview,32.5007,-94.7405,17.97,39,0,3.6,US,1707176140
376,laguna,38.421,-121.4238,15.98,70,100,5.14,US,1707176141
377,esquina,-30.0144,-59.5272,30.94,44,30,3.78,AR,1707176141
378,laredo,27.5064,-99.5075,22.14,32,0,7.2,US,1707175989
379,lodja,-3.4833,23.4333,21.06,98,95,0.68,CD,1707176141
380,sovetskiy,61.3614,63.5842,-17.28,92,99,2.24,RU,1707176141
381,vredendal,-31.6683,18.5012,18.97,92,4,1.4,ZA,1707176141
382,st. john's,47.5649,-52.7093,1.27,97,100,7.6,CA,1707176061
383,nizhneudinsk,54.9076,99.0276,-11.07,91,97,1.82,RU,1707176141
384,mcalester,34.9334,-95.7697,16.05,36,40,5.14,US,1707176141
385,kristiansund,63.1115,7.732,-2.64,93,40,1.03,NO,1707176142
386,key biscayne,25.6937,-80.1628,17.23,94,75,0.0,US,1707176142
387,mili,6.0815,171.735,27.62,73,94,6.49,MH,1707176142
388,esmeraldas,-19.7625,-44.3139,27.17,91,100,1.98,BR,1707176142
389,porbandar,21.6422,69.6093,21.52,86,2,3.78,IN,1707176142
390,cabedelo,-6.9811,-34.8339,28.37,78,27,4.95,BR,1707176142
391,biltine,14.5333,20.9167,19.14,14,27,8.87,TD,1707176142
392,xiva,41.3783,60.3639,5.99,47,85,5.71,UZ,1707176142
393,barmer,25.75,71.3833,17.74,46,55,2.87,IN,1707176143
394,chibougamau,49.9168,-74.3659,-11.21,73,0,2.06,CA,1707176143
395,ugoofaaru,5.6667,73.0,27.83,71,20,6.27,MV,1707176143
396,eagle point,42.4726,-122.8028,13.26,61,100,4.63,US,1707176143
397,kavieng,-2.5744,150.7967,29.17,72,96,2.25,PG,1707176143
398,coruripe,-10.1256,-36.1756,26.56,82,41,3.95,BR,1707176143
399,pisco,-13.7,-76.2167,26.03,78,0,8.75,PE,1707176143
400,boston spa,53.9042,-1.3452,12.16,83,100,8.86,GB,1707176143
401,suva,-18.1416,178.4415,25.71,94,75,2.06,FJ,1707176077
402,mount isa,-20.7333,139.5,29.87,79,40,3.09,AU,1707176144
403,yoloten,37.2989,62.3597,7.71,43,3,6.06,TM,1707176144
404,beau vallon,-20.4189,57.6953,24.13,73,20,1.54,MU,1707176144
405,okhotsk,59.3833,143.3,-22.66,81,68,5.69,RU,1707176144
406,gorontalo,0.5412,123.0595,26.55,83,100,1.48,ID,1707176144
407,progreso,21.2833,-89.6667,24.06,83,20,11.5,MX,1707176144
408,sittwe,20.15,92.9,19.37,61,3,3.45,MM,1707176144
409,zaozersk,69.4005,32.4476,-18.49,99,95,2.06,RU,1707176145
410,monte aprazivel,-20.7725,-49.7142,22.36,66,100,2.08,BR,1707176145
411,medina de pomar,42.9294,-3.488,9.5,90,100,0.56,ES,1707176145
412,mena,51.5217,32.2157,-1.47,88,66,6.27,UA,1707176145
413,prince george,53.9166,-122.753,-1.88,78,75,3.09,CA,1707176145
414,banamba,13.55,-7.45,22.16,10,0,4.39,ML,1707176145
415,antonio enes,-16.2325,39.9086,24.82,91,100,2.61,MZ,1707176145
416,prince rupert,54.3161,-130.3201,4.83,70,0,7.72,CA,1707175918
417,bijar,35.8668,47.6051,-2.81,86,68,6.27,IR,1707176145
418,taytayan,7.7339,126.5019,25.23,81,100,1.6,PH,1707176146
419,eirunepe,-6.6603,-69.8736,23.54,97,80,0.71,BR,1707176146
420,ta`u,-14.2336,-169.5144,28.32,76,94,3.26,AS,1707176146
421,kadnikov,59.5022,40.338,-13.99,97,100,1.99,RU,1707176146
422,karimganj,24.8667,92.35,15.66,76,100,1.54,IN,1707176146
423,bati,11.1833,40.0167,16.59,80,21,1.38,ET,1707176146
424,grand falls-windsor,48.9332,-55.6649,-0.28,95,100,8.36,CA,1707176146
425,shar,49.5886,81.0453,-10.23,85,44,5.78,KZ,1707176147
426,port augusta,-32.5,137.7667,20.81,38,0,9.48,AU,1707176147
427,kavaratti,10.5669,72.642,27.85,74,80,3.93,IN,1707176147
428,tondano,1.3038,124.9112,21.05,72,96,0.79,ID,1707176147
429,tagiura,32.8817,13.3506,15.4,52,0,4.42,LY,1707176147
430,newman,37.3138,-121.0208,14.52,75,99,0.89,US,1707176147
431,san luis de la loma,17.2706,-100.8939,26.65,69,9,2.1,MX,1707176147
432,ridder,50.355,83.5133,-10.57,78,93,2.62,KZ,1707176147
433,el calafate,-50.3408,-72.2768,12.76,58,78,3.88,AR,1707176148
434,al bawiti,28.3492,28.8659,11.04,58,0,2.7,EG,1707176148
435,monrovia,6.3005,-10.7969,26.69,88,17,2.42,LR,1707176148
436,bel ombre,-4.6167,55.4167,26.91,83,20,0.51,SC,1707176148
437,aqadyr,48.2553,72.8483,-11.73,91,100,4.5,KZ,1707176148
438,miranda,3.2499,-76.2281,23.07,93,94,1.5,CO,1707176148
439,miguel ahumada,30.6167,-106.5167,19.31,18,78,5.91,MX,1707176148
440,the pas,53.8251,-101.2541,2.01,93,100,1.54,CA,1707176148
441,obihiro,42.9172,143.2044,-17.33,79,67,1.38,JP,1707176149
442,keelakarai,9.2333,78.7833,24.0,79,8,4.28,IN,1707176149
443,greymouth,-42.4667,171.2,19.77,66,99,3.49,NZ,1707176149
444,yemva,62.59,50.8594,-19.8,98,99,2.18,RU,1707176149
445,fengzhou,24.9576,118.5337,12.21,75,99,2.58,CN,1707176149
446,morehead city,34.7229,-76.726,10.02,73,75,5.36,US,1707175998
447,bathsheba,13.2167,-59.5167,27.34,89,20,7.72,BB,1707176149
448,road town,18.4167,-64.6167,27.05,89,20,6.69,VG,1707176149
449,mogocha,53.7333,119.7667,-26.91,99,8,1.38,RU,1707176150
450,fray luis beltran,-39.3167,-65.7667,32.43,13,87,4.04,AR,1707176150
451,virac,13.6333,124.2167,22.18,85,87,5.46,PH,1707176150
452,paracale,14.2804,122.7881,25.39,87,62,4.18,PH,1707176150
453,benguela,-12.5763,13.4055,26.57,83,100,2.27,AO,1707176127
454,santo antonio do ica,-3.1022,-67.9397,24.67,90,74,0.51,BR,1707176150
455,sodankyla,67.4167,26.6,-27.12,100,97,1.16,FI,1707176150
456,tsiombe,-25.3,45.4833,22.64,91,99,3.85,MG,1707176150
457,severo-yeniseyskiy,60.3725,93.0408,-14.12,97,63,2.24,RU,1707176151
458,sarmiento,-45.5882,-69.07,24.0,18,5,8.26,AR,1707176151
459,fuyang,32.9,115.8167,-5.99,97,96,2.11,CN,1707176151
460,sao gabriel da cachoeira,-0.1303,-67.0892,24.02,97,96,0.42,BR,1707176151
461,khovd,48.0056,91.6419,-20.63,90,27,0.6,MN,1707176151
462,anna regina,7.2644,-58.5077,26.42,88,100,3.9,GY,1707176151
463,estevan,49.1334,-102.9842,3.19,93,100,2.57,CA,1707176151
464,zinder,13.8072,8.9881,15.84,16,46,5.39,NE,1707176152
465,alofi,-19.0595,-169.9187,28.94,70,40,5.14,NU,1707175942
466,beloyarskiy,63.7119,66.6722,-20.56,97,100,2.68,RU,1707176152
467,maceio,-9.6658,-35.7353,27.69,89,40,3.09,BR,1707175894
468,parnarama,-5.6817,-43.0933,28.1,57,87,0.78,BR,1707176152
469,nadym,65.5333,72.5167,-21.87,98,88,5.46,RU,1707176152
470,belo sur tsiribihina,-19.7,44.55,24.47,94,47,1.77,MG,1707176152
471,mugia,43.1041,-9.2179,10.09,75,99,0.8,ES,1707176152
472,qarazhal,48.0078,70.7903,-8.37,87,100,7.44,KZ,1707176153
473,balimila,18.25,82.1333,19.02,86,0,0.94,IN,1707176153
474,san julian,21.0167,-102.1667,20.91,11,0,3.17,MX,1707176153
475,aldinga beach,-35.2793,138.4604,20.98,47,15,4.83,AU,1707176153
476,vavuniya,8.7514,80.4971,20.73,92,49,1.61,LK,1707175936
477,embi,48.8264,58.1442,1.46,79,100,9.86,KZ,1707176153
478,trinidad,-14.8333,-64.9,29.99,74,40,1.54,BO,1707176153
479,tabuk,17.4189,121.4443,23.57,85,79,1.83,PH,1707176153
480,akrehamn,59.2667,5.1833,1.34,74,40,4.12,NO,1707176153
481,monywa,22.1167,95.1333,17.33,58,0,2.15,MM,1707176154
482,bardai,11.65,7.2333,18.04,16,15,6.29,NG,1707176154
483,kearney,40.6995,-99.0815,7.95,76,20,3.09,US,1707175640
484,flying fish cove,-10.4217,105.6791,23.82,94,75,0.0,CX,1707176048
485,lexington park,38.2668,-76.4538,5.91,55,0,4.12,US,1707176154
486,sirte,31.2089,16.5887,15.02,74,0,3.63,LY,1707176154
487,czarna bialostocka,53.3051,23.2815,0.46,92,100,4.12,PL,1707176154
488,yayladagi,35.9025,36.0627,9.3,82,37,3.42,TR,1707176154
489,alcaniz,41.05,-0.1333,10.69,52,100,0.99,ES,1707176155
490,katsuura,35.1333,140.3,5.19,97,100,8.91,JP,1707176155
491,san jorge,-31.8962,-61.8598,32.13,37,91,6.09,AR,1707176155
492,bac lieu,9.285,105.7244,24.93,88,14,2.71,VN,1707176155
493,shingu,33.7333,135.9833,7.39,71,29,3.18,JP,1707176155
494,port saint john's,-31.6229,29.5448,22.97,92,0,2.95,ZA,1707176155
495,andovoranto,-18.95,49.1,23.67,94,100,1.95,MG,1707176155
496,saint-joseph,-21.3667,55.6167,21.21,74,77,3.01,RE,1707176155
497,nuku'alofa,-21.1333,-175.2,26.5,74,86,8.46,TO,1707176155
498,richards bay,-28.783,32.0377,23.26,88,94,1.62,ZA,1707176058
499,suwayr,30.1171,40.3893,6.52,54,0,3.17,SA,1707176156
500,san luis,-33.295,-66.3356,29.38,46,78,1.55,AR,1707176038
501,parham,17.0968,-61.7705,26.83,53,20,2.06,AG,1707176156
502,chela,34.069,104.4619,-4.35,92,100,1.69,CN,1707176156
503,tarata,-17.6167,-66.0167,22.68,62,31,2.67,BO,1707176156
504,ghat,24.9647,10.1728,10.06,41,8,2.13,LY,1707176156
505,chongwe,-15.3292,28.682,19.06,83,6,1.01,ZM,1707176156
506,xiabaishi,26.8153,119.6792,8.71,89,100,1.61,CN,1707176157
507,pangody,65.85,74.4859,-23.53,98,61,4.81,RU,1707176157
508,merizo village,13.2658,144.6691,28.31,76,100,8.44,GU,1707176157
509,cherrybrook,-33.7228,151.0461,24.04,89,100,0.89,AU,1707176157
510,caleta de carquin,-11.0925,-77.6267,24.69,78,38,3.07,PE,1707176157
511,nizao,18.25,-70.2,27.48,87,85,6.28,DO,1707176157
512,yanbu,24.0891,38.0637,16.02,63,0,1.54,SA,1707176157
513,saint-pierre,-21.3393,55.4781,21.82,68,0,3.09,RE,1707176157
514,seryshevo,51.0933,128.3786,-24.47,99,99,0.64,RU,1707176158
515,northam,51.0333,-4.2167,13.14,95,100,10.77,GB,1707176158
516,cockburn town,21.4612,-71.1419,22.98,83,75,4.12,TC,1707176158
517,rouissat,31.9243,5.3502,9.04,49,0,1.54,DZ,1707176158
518,daye,30.0833,114.95,0.5,99,100,0.21,CN,1707176158
519,tindouf,27.6711,-8.1474,12.25,40,0,2.57,DZ,1707176158
520,majene,-3.5403,118.9707,26.47,81,100,0.88,ID,1707176158
521,mooloolaba,-26.6833,153.1167,28.92,83,95,0.45,AU,1707176158
522,keflavik,64.0049,-22.5624,-6.76,63,40,9.26,IS,1707176159
523,nikolayevsk-on-amure,53.1406,140.73,-18.59,91,74,1.91,RU,1707176159
524,mandera,3.9366,41.867,26.88,51,60,4.92,KE,1707176159
525,pelotas,-31.7719,-52.3425,25.01,78,75,5.14,BR,1707176159
526,san salvador de jujuy,-24.1946,-65.2971,27.74,91,100,2.99,AR,1707176159
527,aliveri,38.4167,24.0333,15.23,52,0,2.01,GR,1707176159
528,tibanbang,6.6315,126.1055,25.61,82,100,1.15,PH,1707176159
529,luorong,24.4058,109.6086,6.21,89,100,3.37,CN,1707176160
530,hotan,37.0997,79.9269,-4.01,89,93,1.37,CN,1707176160
531,howrah,22.5892,88.3103,22.0,88,40,0.0,IN,1707176160
532,charters towers,-20.1,146.2667,30.17,60,7,2.67,AU,1707176160
533,janow lubelski,50.707,22.4104,9.01,78,100,9.35,PL,1707176160
534,igrim,63.1906,64.4162,-17.16,97,100,2.31,RU,1707176160
535,borba,-4.3878,-59.5939,26.4,84,94,0.72,BR,1707176160
536,la junta,37.985,-103.5438,15.1,33,0,2.57,US,1707175940
537,rongelap,11.1635,166.8941,26.53,82,84,9.02,MH,1707176161
538,kerikeri,-35.2268,173.9474,23.82,54,7,3.23,NZ,1707176161
539,sovetskaya gavan',48.9723,140.2878,-18.27,86,6,1.51,RU,1707176161
540,izazi,-7.2,35.7333,20.74,90,96,0.65,TZ,1707176161
541,bereznik,62.8551,42.7072,-21.48,97,96,2.14,RU,1707176161
542,new bern,35.1085,-77.0441,10.01,47,85,4.18,US,1707176161
543,kiffa,16.6166,-11.4045,22.91,9,8,5.41,MR,1707176162
544,boguchany,58.3814,97.4531,-12.3,99,95,1.79,RU,1707176162
545,baukau,51.5526,7.2042,9.32,89,100,6.93,DE,1707176162
546,pimentel,-6.8367,-79.9342,28.16,65,0,6.17,PE,1707176162
547,dubai,25.2582,55.3047,17.96,63,0,3.09,AE,1707175522
548,inhambane,-23.865,35.3833,24.26,88,12,0.89,MZ,1707176162
549,alo,7.4178,6.7371,25.87,18,31,1.17,NG,1707176163
550,paradip garh,20.3167,86.6167,22.33,86,0,3.61,IN,1707176163
551,kuqa,41.7278,82.9364,-5.62,80,50,0.88,CN,1707176163
552,christchurch,-43.5333,172.6333,30.3,34,99,1.03,NZ,1707176091
553,macheng,31.1783,115.0319,-1.25,91,100,2.96,CN,1707176163
554,khandallah,-41.2467,174.7906,26.95,68,20,12.86,NZ,1707176163
555,kuytun,54.3419,101.5036,-21.87,100,84,0.63,RU,1707176163
556,el nido,11.1858,119.3956,27.03,73,78,2.73,PH,1707176164
557,encruzilhada do sul,-30.5439,-52.5219,21.26,93,52,4.38,BR,1707176164
558,north bend,43.4065,-124.2243,10.14,93,100,3.6,US,1707176164
559,malanje,-9.5402,16.341,17.56,97,78,1.52,AO,1707176164
560,jawf al maqbabah,13.8378,45.8349,18.01,88,35,0.61,YE,1707176164
561,constitucion,-35.3333,-72.4167,16.93,77,73,6.32,CL,1707176164
562,contamana,-7.3333,-75.0167,27.26,66,82,1.18,PE,1707176164
563,funafuti,-8.5243,179.1942,30.0,79,100,10.29,TV,1707176164
564,talas,38.6908,35.5538,5.37,56,75,2.57,TR,1707176165
565,kaa-khem,51.6833,94.7333,-28.11,94,26,1.2,RU,1707176165
566,sao joao da barra,-21.6403,-41.0511,27.05,89,100,3.72,BR,1707176165
567,drabiv,49.963,32.1529,0.49,74,91,7.29,UA,1707176165
568,baranovichi,53.1327,26.0139,-0.24,82,99,4.98,BY,1707176165
569,godda,24.8333,87.2167,15.72,96,60,1.08,IN,1707176165
570,tyukhtet,56.5389,89.3011,-11.06,92,78,2.87,RU,1707176165
571,kralendijk,12.15,-68.2667,27.99,83,0,5.14,BQ,1707176166
572,el-tor,28.2364,33.6254,17.08,45,0,4.12,EG,1707176166
573,kibre mengist,5.8833,38.9833,14.13,77,46,1.31,ET,1707176166
574,tabou,4.423,-7.3528,27.61,77,40,2.73,CI,1707176166
575,aland,17.5667,76.5667,23.68,51,0,2.34,IN,1707176166
